fcode,fname,Lat,Long,mGeoCode,sGeoCode,date_of_geocode
11820,St Mary's Medical Clinic (Malindi),-2.86033,40.14977,Taken with GPS Device,SARAM 2013,2013-04-13
11364,Egah Medical Clinic,-3.22176,40.11403,Taken with GPS Device,SARAM 2013,2013-04-13
11564,Marereni Medical Clinic,-2.86353,40.14839,Taken with GPS Device,SARAM 2013,2013-04-13
11896,Watamu Maternity And Nursing Home,-3.34342,40.01389,Taken with GPS Device,SARAM 2013,2013-04-23
11677,Municipal Health Centre,-3.23304,40.11508,Taken with GPS Device,SARAM 2013,2013-04-13
11520,Likoni Catholic Dispensary,-4.0992,39.64575,Taken with GPS Device,SARAM 2013,2013-04-16
16525,San Marco Project Clinic,-2.99605,40.19492,Taken with GPS Device,SARAM 2013,2013-04-13
17970,Similani Medical Clinic,-2.86147,40.14847,Taken with GPS Device,SARAM 2013,2013-04-10
11556,Malindi Care Services Limited,-3.22654,40.12387,Taken with GPS Device,SARAM 2013,2013-04-19
11895,Watamu Dispensary,-3.35234,40.0136,Taken with GPS Device,SARAM 2013,2013-04-13
11200,Afya Bora Medical Clinic (Malindi),-2.86282,40.1482,Taken with GPS Device,SARAM 2013,2013-04-10
11388,Gede Medical Clinic,-3.34284,40.01311,Taken with GPS Device,SARAM 2013,2013-04-11
11844,Tawheed Dispensary,-3.21693,40.11485,Taken with GPS Device,SARAM 2013,2013-04-13
11851,Timboni Community Dispensary,-3.34844,40.0117,Taken with GPS Device,SARAM 2013,2013-04-13
11843,Tawfiq Muslim Hospital,-3.22078,40.11293,Taken with GPS Device,SARAM 2013,2013-04-11
11894,Watamu Community Health Care,-3.35224,40.02191,Taken with GPS Device,SARAM 2013,2013-04-17
11722,Nyali Barracks Dispensary,-4.04052,39.71066,Taken with GPS Device,SARAM 2013,2013-05-08
11829,Star Hospital,-3.21473,40.1188,Taken with GPS Device,SARAM 2013,2013-04-13
11836,Takaungu Dispensary,-3.68301,39.86112,Taken with GPS Device,SARAM 2013,2013-04-13
11897,Watamu hospital,-3.36216,40.00164,Taken with GPS Device,SARAM 2013,2013-04-11
11260,Borabu Medical Clinic,-3.96966,39.73333,Taken with GPS Device,SARAM 2013,2013-04-15
11570,Marie Stopes Mombasa Nursing Home,-4.06057,39.66324,Taken with GPS Device,SARAM 2013,2013-04-12
11288,Chumani Medical Clinic,-3.47405,39.8989,Taken with GPS Device,SARAM 2013,2013-04-16
11664,Mtangani Medical Clinic,-3.20494,40.10209,Taken with GPS Device,SARAM 2013,2013-04-12
11707,Neema Medical Clinic (Malindi),-3.03775,40.13759,Taken with GPS Device,SARAM 2013,2013-04-10
11715,Ngomeni Dispensary (Malindi),-2.99997,40.18708,Taken with GPS Device,SARAM 2013,2013-04-13
11758,Roka Maweni Dispensary,-3.4436,39.92867,Taken with GPS Device,SARAM 2013,2013-04-10
11824,St Peter's Hospital,-3.23281,40.12563,Taken with GPS Device,SARAM 2013,2013-04-11
11208,Al Farooq Hospital,-4.04899,39.66513,Taken with GPS Device,SARAM 2013,2013-04-20
11482,Kingstone Medical Clinic,-4.08559,39.6617,Taken with GPS Device,SARAM 2013,2013-04-14
11770,Santa Maria Medical Clinic,-4.09207,39.65824,Taken with GPS Device,SARAM 2013,2013-04-14
11632,David Kariuki Medical Centre,-3.21872,40.12152,Taken with GPS Device,SARAM 2013,2013-04-13
11759,Royal Health Care,-3.21658,40.12222,Taken with GPS Device,SARAM 2013,2013-04-13
11833,Sun n' Sand Medical Clinic,-3.89575,39.79139,Taken with GPS Device,SARAM 2013,2013-04-15
17886,Al-amin Medical Clinic,-3.21457,40.11477,Taken with GPS Device,SARAM 2013,2013-04-18
17893,Mzizima (CDF) Dispensary,-4.60703,39.3496,Taken with GPS Device,SARAM 2013,2013-04-23
11314,Dr Bernad M Oduor Clinic,-3.21718,40.11979,Taken with GPS Device,SARAM 2013,2013-04-19
11401,Gongoni Health Centre,-3.0364,40.13346,Taken with GPS Device,SARAM 2013,2013-04-11
11713,Ngerenya Dispensary,-3.51368,39.86228,Taken with GPS Device,SARAM 2013,2013-04-11
11306,Didewaride Dispensary,-2.41803,40.59781,Taken with GPS Device,SARAM 2013,2013-04-10
11854,Tononoka Administration Police Dispensary & VCT,-4.0475,39.66935,Taken with GPS Device,SARAM 2013,2013-04-17
16534,Bombolulu Staff Clinic,-4.02185,39.70224,Taken with GPS Device,SARAM 2013,2013-05-08
11555,Malindi District Hospital,-3.22649,40.1247,Taken with GPS Device,SARAM 2013,2013-04-10
11808,St Andrews Medical Clinic,-3.03411,40.1374,Taken with GPS Device,SARAM 2013,2013-04-13
11893,Watamu (SDA) Dispensary,-3.35381,40.01782,Taken with GPS Device,SARAM 2013,2013-04-11
19016,Blue Nile Medical Clinic,-3.60981,39.85414,Taken with GPS Device,SARAM 2013,2013-04-11
11563,Marereni Dispensary,-2.86296,40.14481,Taken with GPS Device,SARAM 2013,2013-04-10
11567,Marie Stopes Kenya Clinic (Malindi),-3.21487,40.1178,Taken with GPS Device,SARAM 2013,2013-04-18
11580,Matsangoni Model  Health Centre,-3.38952,39.9285,Taken with GPS Device,SARAM 2013,2013-04-12
11678,Muyeye Medical Clinic,-3.24161,40.11486,Taken with GPS Device,SARAM 2013,2013-04-18
11796,Siloam Medical Clinic (Malindi),-3.228,40.11308,Taken with GPS Device,SARAM 2013,2013-04-19
16180,Heri Medical Centre,-3.53395,39.87975,Taken with GPS Device,SARAM 2013,2013-04-20
11402,Gongoni Medical Clinic,-3.036,40.13608,Taken with GPS Device,SARAM 2013,2013-04-13
11667,Mtondia Dispensary,-3.57878,39.86885,Taken with GPS Device,SARAM 2013,2013-04-15
11848,Tezo Community Health Care,-3.53496,39.87941,Taken with GPS Device,SARAM 2013,2013-04-18
11876,Uzima Medical Clinic (Kilifi),-3.3878,39.92755,Taken with GPS Device,SARAM 2013,2013-04-11
17887,Venoma Medical Clinic,-3.20741,40.11651,Taken with GPS Device,SARAM 2013,2013-04-13
18324,Pumzika Medical Clinic,-3.95112,39.74316,Taken with GPS Device,SARAM 2013,2013-04-10
18749,Serena Beach Hotel & SPA Staff Clinic,-3.97185,39.7502,Taken with GPS Device,SARAM 2013,2013-04-16
11855,Town Centre Medical Clinic,-3.22192,40.11435,Taken with GPS Device,SARAM 2013,2013-04-13
11233,Badria Medical Clinic,-4.04235,39.68392,Taken with GPS Device,SARAM 2013,2013-04-15
11319,Dr Dhutia Clinic,-4.03576,39.66257,Taken with GPS Device,SARAM 2013,2013-04-10
16442,Genesis Medicare,-4.01146,39.69423,Taken with GPS Device,SARAM 2013,2013-04-11
11387,Gede Health Centre,-3.30853,40.01106,Taken with GPS Device,SARAM 2013,2013-04-13
11692,Mwanzo Medical Clinic,-3.94539,39.74677,Taken with GPS Device,SARAM 2013,2013-04-12
18325,New Mwema Medical Clinic,-3.9482,39.74094,Taken with GPS Device,SARAM 2013,2013-05-29
11273,CDC Ganjoni Dispensary,-4.06398,39.66609,Taken with GPS Device,SARAM 2013,2013-04-15
11397,Shimo Borstal Dispensary (GK Prison),-3.96818,39.73365,Taken with GPS Device,SARAM 2013,2013-04-15
16544,St. Anne Medical Centre (Mombasa),-4.03561,39.69071,Taken with GPS Device,SARAM 2013,2013-04-20
18844,HighRise Medical Clinic,-4.00463,39.71152,Taken with GPS Device,SARAM 2013,2013-04-17
11293,Cowdray Dispensary,-3.28859,40.07671,Taken with GPS Device,SARAM 2013,2013-04-12
11528,Maamba Medical Clinic,-3.91889,39.76094,Taken with GPS Device,SARAM 2013,2013-04-13
16527,StanBridge Care Centre,-3.2198,40.10569,Taken with GPS Device,SARAM 2013,2013-04-13
11788,Shimo La Tewa High School Dispensary,-3.96036,39.74356,Taken with GPS Device,SARAM 2013,2013-05-10
11696,Mwawesa Medical Clinic,-3.22309,40.10757,Taken with GPS Device,SARAM 2013,2013-04-11
11731,Palani Health Care Clinic,-4.03219,39.68243,Taken with GPS Device,SARAM 2013,2013-04-11
16536,Community Medical Centre (Kongowea),-4.04246,39.68632,Taken with GPS Device,SARAM 2013,2013-04-15
17233,Maweni CDF Dispensary (Kongowea),-4.03833,39.69512,Taken with GPS Device,SARAM 2013,2013-04-15
15396,Olemila VCT Centre,0.20325,35.10533,Taken with GPS Device,SARAM 2013,2013-04-24
16178,Kwetu VCT,-3.58219,39.42829,Taken with GPS Device,SARAM 2013,2013-04-15
16528,Subira Medical Clinic,-3.21354,40.09913,Taken with GPS Device,SARAM 2013,2013-04-19
17884,Serena medical clinic,-3.22709,40.10338,Taken with GPS Device,SARAM 2013,2013-04-13
11621,Mishoroni Dispensary,-4.01894,39.68344,Taken with GPS Device,SARAM 2013,2013-04-13
11767,Samba Medical Clinic,-4.02442,39.68785,Taken with GPS Device,SARAM 2013,2013-04-17
11807,Sparki Health Services,-4.04195,39.66153,Taken with GPS Device,SARAM 2013,2013-04-13
16441,Bona Medical Clinic,-4.00269,39.69856,Taken with GPS Device,SARAM 2013,2013-04-11
11362,Ebenezer Medical Clinic (Malindi),-3.21881,40.1053,Taken with GPS Device,SARAM 2013,2013-04-11
11659,Msumarini Dispensary,-3.87227,39.79793,Taken with GPS Device,SARAM 2013,2013-04-10
11661,Mt Harmony Clinic,-3.94607,39.74022,Taken with GPS Device,SARAM 2013,2013-04-12
11912,Zion Community Clinic,-3.93024,39.74955,Taken with GPS Device,SARAM 2013,2013-04-12
18496,Pendo Medical Clinic,-4.28058,39.56725,Taken with GPS Device,SARAM 2013,2013-04-10
18071,Barsheba Medical Clinic,-4.00313,39.71214,Taken with GPS Device,SARAM 2013,2013-04-17
11651,Mrima (Catholic) Dispensary,-4.49113,39.24639,Taken with GPS Device,SARAM 2013,2013-04-12
11654,St Marys Msabaha Catholic Dispensary,-3.26492,40.0516,Taken with GPS Device,SARAM 2013,2013-04-12
11324,Dr Gathuo Clinic,-4.04906,39.67352,Taken with GPS Device,SARAM 2013,2013-04-19
11325,Dr Gikandi Clinic,-4.04906,39.67352,Taken with GPS Device,SARAM 2013,2013-04-18
11339,Dr Mahero Clinic,-4.04906,39.67352,Taken with GPS Device,SARAM 2013,2013-04-19
11341,Dr Marami Clinic,-4.04906,39.67352,Taken with GPS Device,SARAM 2013,2013-04-15
11343,Dr Miyalla Clinic,-4.04906,39.67352,Taken with GPS Device,SARAM 2013,2013-04-19
11345,Dr N Mwangome Clinic,-4.04906,39.67352,Taken with GPS Device,SARAM 2013,2013-05-01
11348,Dr Okanga J.B.O,-4.04906,39.67352,Taken with GPS Device,SARAM 2013,2013-04-18
11375,Family Health Options Kenya (FHOK) Mombasa,-4.06221,39.67152,Taken with GPS Device,SARAM 2013,2013-04-19
11793,Shukrani Medical Clinic,-4.04336,39.68613,Taken with GPS Device,SARAM 2013,2013-04-15
16531,Avenue Health Care,-4.04906,39.67352,Taken with GPS Device,SARAM 2013,2013-04-17
17975,Tayabi Medical and Dental Centre,-4.04317,39.68512,Taken with GPS Device,SARAM 2013,2013-05-10
11298,Danrose Clinic,-3.23561,40.09756,Taken with GPS Device,SARAM 2013,2013-04-19
11380,Gahaleni Dispensary,-3.27017,40.0951,Taken with GPS Device,SARAM 2013,2013-04-16
17885,Imani Medical Services,-3.22051,40.1034,Taken with GPS Device,SARAM 2013,2013-04-11
11888,Waa Health Centre,-4.17348,39.60243,Taken with GPS Device,SARAM 2013,2013-04-11
11234,Bahari Medical Clinic,-4.08577,39.65958,Taken with GPS Device,SARAM 2013,2013-04-18
11626,Mjeni Medical Clinic,-4.0361,39.69119,Taken with GPS Device,SARAM 2013,2013-04-20
11721,AAR Nyali Health Care,-4.02797,39.71669,Taken with GPS Device,SARAM 2013,2013-04-15
11751,Rainbow Community Care,-3.18099,40.11512,Taken with GPS Device,SARAM 2013,2013-04-13
17892,Zigira (Community) Dispensary,-4.36865,39.49005,Taken with GPS Device,SARAM 2013,2013-04-16
11573,Mary Immaculate Cottage Hospital (Mombasa),-4.0461,39.66333,Taken with GPS Device,SARAM 2013,2013-04-15
11683,Mwakirunge Dispensary,-4.03355,39.66053,Taken with GPS Device,SARAM 2013,2013-04-11
11911,Yeshua Medical,-4.00236,39.70409,Taken with GPS Device,SARAM 2013,2013-04-13
11217,Amani Medical Clinic (Kilifi),-3.64157,39.84783,Taken with GPS Device,SARAM 2013,2013-04-11
11424,Jambo Clinic,-3.22151,40.10488,Taken with GPS Device,SARAM 2013,2013-04-12
11881,Vipingo Rural Demonstration Health Centre,-3.81928,39.80962,Taken with GPS Device,SARAM 2013,2013-04-10
16526,St Bennedticto Health Centre,-3.19804,40.11096,Taken with GPS Device,SARAM 2013,2013-04-13
16547,Kinondo Kwetu Community Clinic,-4.37555,39.52724,Taken with GPS Device,SARAM 2013,2013-04-15
11429,Jamii Health Care Clinic (Kisauni),-4.03037,39.68441,Taken with GPS Device,SARAM 2013,2013-04-13
11530,Mackinnon Medical Clinic,-4.08619,39.66458,Taken with GPS Device,SARAM 2013,2013-04-14
11772,Savana Medical Clinic,-4.02331,39.68086,Taken with GPS Device,SARAM 2013,2013-04-13
11360,Dzitsoni Medical Clinic,-3.64227,39.84997,Taken with GPS Device,SARAM 2013,2013-04-11
11534,Madunguni Dispensary,-3.18333,39.97451,Taken with GPS Device,SARAM 2013,2013-04-11
11431,Jericho Medical Clinic,-4.04284,39.68553,Taken with GPS Device,SARAM 2013,2013-04-19
11774,Sayyida Fatimah Hospital,-4.02832,39.68701,Taken with GPS Device,SARAM 2013,2013-04-17
11783,Shanzu Teachers College Clinic,-3.9682,39.74233,Taken with GPS Device,SARAM 2013,2013-04-17
11786,Shiloh Nursing Clinic,-4.02824,39.6885,Taken with GPS Device,SARAM 2013,2013-04-18
11297,Dagamra Dispensary,-3.14893,39.91768,Taken with GPS Device,SARAM 2013,2013-04-19
11571,Marikebuni Dispensary,-3.09017,40.00028,Taken with GPS Device,SARAM 2013,2013-04-10
11204,Airport View Medical Clinic,-4.02982,39.6125,Taken with GPS Device,SARAM 2013,2013-04-15
11425,Jambo Medical Clinic,-4.03867,39.6894,Taken with GPS Device,SARAM 2013,2013-04-15
11636,Mnarani Dispensary,-3.644,39.8393,Taken with GPS Device,SARAM 2013,2013-04-11
11666,Mtepeni Dispensary,-3.90731,39.72585,Taken with GPS Device,SARAM 2013,2013-04-10
11205,Memon Medical Centre,-4.05311,39.66839,Taken with GPS Device,SARAM 2013,2013-04-13
11689,Mwangatini Dispensary,-3.1423,40.042289,Taken with GPS Device,SARAM 2013,2013-04-11
11226,Ashraf Medical Clinic,-4.06111,39.67204,Taken with GPS Device,SARAM 2013,2013-04-20
11489,Kisimani Health Services,-4.02609,39.6956,Taken with GPS Device,SARAM 2013,2013-04-16
11634,Mlaleo Health Centre,-4.02771,39.68397,Taken with GPS Device,SARAM 2013,2013-04-14
11766,Salama Medical Clinic (Mombasa),-4.02061,39.68922,Taken with GPS Device,SARAM 2013,2013-04-21
11862,Tudor Health Care,-4.03712,39.66124,Taken with GPS Device,SARAM 2013,2013-04-20
16530,Al-Bir Medical Centre,-4.05228,39.67372,Taken with GPS Device,SARAM 2013,2013-04-20
11454,Kanamai Health Care,-3.91889,39.76094,Taken with GPS Device,SARAM 2013,2013-04-14
11468,Kiembeni Community,-3.99142,39.69938,Taken with GPS Device,SARAM 2013,2013-04-12
18845,Afya Medical Centre,-4.00659,39.70123,Taken with GPS Device,SARAM 2013,2013-04-16
11755,REA Vipingo Dispensary,-3.82222,39.79516,Taken with GPS Device,SARAM 2013,2013-04-16
11379,Fundi Issa Dispensary,-2.92982,40.09493,Taken with GPS Device,SARAM 2013,2013-04-10
11394,GK Prison Dispensary (Malindi),-3.19691,40.08804,Taken with GPS Device,SARAM 2013,2013-04-13
11761,Sabaki Dispensary,-3.1669,40.11085,Taken with GPS Device,SARAM 2013,2013-04-12
11272,CBK Staff Clinic (Mombasa),-4.06211,39.67664,Taken with GPS Device,SARAM 2013,2013-04-20
19019,Mephi Medical Clinic,-3.62002,39.85344,Taken with GPS Device,SARAM 2013,2013-04-10
11439,Jordan Medical Clinic,-4.01138,39.69408,Taken with GPS Device,SARAM 2013,2013-04-12
11747,Queen Kadede Medical Clinic,-4.01207,39.67991,Taken with GPS Device,SARAM 2013,2013-04-21
16532,Bakarani Community Clinic,-4.01513,39.69491,Taken with GPS Device,SARAM 2013,2013-04-15
11423,Jaffery Medical Clinic,-4.5929,39.67626,Taken with GPS Device,SARAM 2013,2013-04-18
11304,Diani Health Centre,-4.27434,39.5677,Taken with GPS Device,SARAM 2013,2013-04-10
11446,Kaderboy Medical Clinic (Old Town),-4.06217,39.67344,Taken with GPS Device,SARAM 2013,2013-04-11
11779,Senior Staff Medical Clinic,-4.06217,39.67344,Taken with GPS Device,SARAM 2013,2013-05-06
11453,Kakuyuni Dispensary (Malindi),-3.22034,40.00194,Taken with GPS Device,SARAM 2013,2013-04-12
11670,Mtopanga Clinic,-4.00609,39.69667,Taken with GPS Device,SARAM 2013,2013-04-21
11610,Mijomboni Dispensary,-3.26951,40.00334,Taken with GPS Device,SARAM 2013,2013-04-13
11672,Mtwapa Health Centre,-3.94795,39.73872,Taken with GPS Device,SARAM 2013,2013-04-10
11600,Mewa Hospital,-4.05305,39.66154,Taken with GPS Device,SARAM 2013,2013-04-18
11384,Garashi Dispensary,-3.13088,39.8913,Taken with GPS Device,SARAM 2013,2013-04-11
11239,Bamburi Dispensary,-4.00435,39.69335,Taken with GPS Device,SARAM 2013,2013-04-15
11382,Ganda Dispensary,-3.21609,40.06558,Taken with GPS Device,SARAM 2013,2013-04-11
11802,Sokoke Dispensary,-3.52547,39.78235,Taken with GPS Device,SARAM 2013,2013-04-12
11899,Wayani Medical Clinic (Likoni),-4.08305,39.6623,Taken with GPS Device,SARAM 2013,2013-04-12
11275,Chaani Maternity Nursing Home,-4.03205,39.62769,Taken with GPS Device,SARAM 2013,2013-04-15
11258,Bomu Medical Hospital (Changamwe),-4.02745,39.61751,Taken with GPS Device,SARAM 2013,2013-04-14
11815,St Grace Medical Clinic,-4.03027,39.62555,Taken with GPS Device,SARAM 2013,2013-04-14
11736,Pendo Medical Clinic (Kilindini),-4.02771,39.61241,Taken with GPS Device,SARAM 2013,2013-04-10
11471,Kikambala Medical Services,-3.88085,39.77823,Taken with GPS Device,SARAM 2013,2013-04-13
17469,Kiteje Dispensary,-4.11782,39.60132,Taken with GPS Device,SARAM 2013,2013-04-11
11506,Kwa Ndomo Medical Clinic,-3.18463,40.11279,Taken with GPS Device,SARAM 2013,2013-04-13
11710,New Road Medical care,-4.03578,39.61982,Taken with GPS Device,SARAM 2013,2013-04-15
11776,"""Ballore"""" Africa logistic Staff Clinic""",-4.01822,39.63202,Taken with GPS Device,SARAM 2013,2013-04-17
16523,Mwavizi Medical Clinic,-3.16968,40.08494,Taken with GPS Device,SARAM 2013,2013-04-15
11433,Jilore Dispensary,-3.18857,39.90593,Taken with GPS Device,SARAM 2013,2013-04-13
11645,Mother Amadea Health Centre,-4.00434,39.62743,Taken with GPS Device,SARAM 2013,2013-04-14
18482,Mavueni Dispensary,-3.678,39.79902,Taken with GPS Device,SARAM 2013,2013-04-14
11363,Eden Medical Clinic,-4.01901,39.63338,Taken with GPS Device,SARAM 2013,2013-04-18
11541,Majengo Dispensary (Mombasa),-4.04839,39.66051,Taken with GPS Device,SARAM 2013,2013-04-14
11209,Al Riyadh Medical Clinic,-4.02498,39.62522,Taken with GPS Device,SARAM 2013,2013-04-21
11378,Frontline Clinic,-4.02283,39.62131,Taken with GPS Device,SARAM 2013,2013-04-21
11614,Mikindani Catholic Dispensary,-4.00193,39.62971,Taken with GPS Device,SARAM 2013,2013-04-18
11657,Msikiti Noor Medical Clinic,-4.02597,39.62859,Taken with GPS Device,SARAM 2013,2013-04-16
11832,Stella Maris Medical Clinic,-4.02951,39.62411,Taken with GPS Device,SARAM 2013,2013-04-18
11440,Joy Medical Clinic (Changamwe),-4.00203,39.62966,Taken with GPS Device,SARAM 2013,2013-04-18
11864,Tumaini Medical Clinic (Kilindini),-4.02552,39.61199,Taken with GPS Device,SARAM 2013,2013-04-10
11527,Lutsangani Dispensary,-4.06412,39.51361,Taken with GPS Device,SARAM 2013,2013-04-10
11266,Bwagamoyo Dispensary,-3.9402,39.64462,Taken with GPS Device,SARAM 2013,2013-04-17
19066,The Nyali Childrens Hospital (Mikindani),-4.00551,39.62928,Taken with GPS Device,SARAM 2013,2013-04-27
11216,Amani Medical Clinic (Changamwe),-3.99953,39.60588,Taken with GPS Device,SARAM 2013,2013-04-16
11255,Bomani Dispensary,-3.88414,39.74945,Taken with GPS Device,SARAM 2013,2013-04-12
11452,Kakoneni Dispensary,-3.16442,39.86595,Taken with GPS Device,SARAM 2013,2013-04-11
11870,Upendo Health Care Clinic,-3.17354,39.86014,Taken with GPS Device,SARAM 2013,2013-04-11
13398,Liboi Health Centre,0.21137,40.52367,Taken with GPS Device,SARAM 2013,2013-04-22
11430,Jaribuni Dispensary,-3.6326,39.74256,Taken with GPS Device,SARAM 2013,2013-04-12
11276,Chakama Dispensary,-3.122,39.63333,Taken with GPS Device,SARAM 2013,2013-04-12
11562,Marafa Health Centre,-3.02853,39.95973,Taken with GPS Device,SARAM 2013,2013-04-12
11578,Matolani Dispensary,-3.10202,39.66969,Taken with GPS Device,SARAM 2013,2013-04-15
11248,Baricho Dispensary (Malindi),-3.10339,39.78478,Taken with GPS Device,SARAM 2013,2013-04-10
11256,Bombi Dispensary,-3.07925,39.47874,Taken with GPS Device,SARAM 2013,2013-04-15
11447,Kadzinuni Dispensary,-3.74511,39.81237,Taken with GPS Device,SARAM 2013,2013-04-12
11517,Lenga Dispensary,-3.86697,39.66193,Taken with GPS Device,SARAM 2013,2013-04-17
13403,Mandera Medicare Nursing Home,3.93531,41.85176,Taken with GPS Device,SARAM 2013,2013-04-15
13386,Kulan Health centre,0.21875,40.64415,Taken with GPS Device,SARAM 2013,2013-04-19
11514,NAWACO Clinic,-3.12989,39.78219,Taken with GPS Device,SARAM 2013,2013-04-13
11305,Dida Dispensary,-3.42885,39.80529,Taken with GPS Device,SARAM 2013,2013-04-14
11244,Baolala Dispensary,-3.17962,39.78562,Taken with GPS Device,SARAM 2013,2013-04-12
11624,Mivumoni (Catholic) Dispensary,-4.42514,39.39711,Taken with GPS Device,SARAM 2013,2013-04-12
11805,Sosoni Dispensary,-3.02795,39.323,Taken with GPS Device,SARAM 2013,2013-04-10
11581,Matuga Dispensary,-4.1771,39.56773,Taken with GPS Device,SARAM 2013,2013-04-11
11432,Jibana Sub District Hospital,-3.83116,39.68587,Taken with GPS Device,SARAM 2013,2013-04-15
16550,St Joseph Maledi Clinic,-4.44943,39.12749,Taken with GPS Device,SARAM 2013,2013-04-23
13316,Dadaab Sub-District Hospital,0.05728,40.307,Taken with GPS Device,SARAM 2013,2013-04-22
11883,Vitengeni Health Centre,-3.35899,39.70818,Taken with GPS Device,SARAM 2013,2013-04-12
11498,Kombeni Dispensary,-3.9128,39.58706,Taken with GPS Device,SARAM 2013,2013-04-15
11553,Malanga (AIC) Dispensary,-3.24695,39.79181,Taken with GPS Device,SARAM 2013,2013-04-10
11691,Mwangulu Dispensary,-4.40954,39.0134,Taken with GPS Device,SARAM 2013,2013-04-17
11196,ADC Danisa Dispensary,-3.05351,39.50986,Taken with GPS Device,SARAM 2013,2013-04-19
11444,Junju Dispensary,-3.82977,39.76133,Taken with GPS Device,SARAM 2013,2013-04-11
18404,Al-Mumtaz Medical Clinic,-0.47455,39.65443,Taken with GPS Device,SARAM 2013,2013-04-17
11682,Mwachinga Medical Clinic,-4.12869,39.42357,Taken with GPS Device,SARAM 2013,2013-04-10
11826,St Theresa Dispensary,-3.7925,39.7038,Taken with GPS Device,SARAM 2013,2013-04-12
11434,Jocham Hospital,-4.03672,39.68148,Taken with GPS Device,SARAM 2013,2013-04-16
15013,Lare Health Centre,-0.39356,36.02481,Taken with GPS Device,SARAM 2013,2013-04-11
11587,Mazumalume Dispensary,-4.24513,39.48973,Taken with GPS Device,SARAM 2013,2013-04-10
11753,Ramada Dispensary,-2.89249,40.02373,Taken with GPS Device,SARAM 2013,2013-04-13
11658,Msulwa Dispensary,-4.26404,39.46136,Taken with GPS Device,SARAM 2013,2013-04-10
19162,Afwene Clinic,-0.43407,39.65269,Taken with GPS Device,SARAM 2013,2013-04-17
11400,Godo Dispensary,-4.52498,39.02958,Taken with GPS Device,SARAM 2013,2013-04-18
18263,Dzanikeni Medical Clinic,-3.85514,39.60708,Taken with GPS Device,SARAM 2013,2013-04-17
19165,Al Qudus Clinic,-0.42807,39.65069,Taken with GPS Device,SARAM 2013,2013-04-18
11653,Muryachakwe Dispensary,-3.28833,39.57636,Taken with GPS Device,SARAM 2013,2013-04-11
11845,Tchamalo Medical Clinic,-3.54295,39.69266,Taken with GPS Device,SARAM 2013,2013-04-12
13327,Dertu Health centre,0.27263,39.79852,Taken with GPS Device,SARAM 2013,2013-04-17
19461,Al-Ramah Healthcare,-0.4406,39.6581,Taken with GPS Device,SARAM 2013,2013-04-23
19460,Garissa Pride Healthcare,-0.43522,39.65867,Taken with GPS Device,SARAM 2013,2013-04-18
11738,Pingilikani Dispensary,-3.77463,39.77309,Taken with GPS Device,SARAM 2013,2013-04-11
11681,Mwabila Dispensary,-3.85645,39.39173,Taken with GPS Device,SARAM 2013,2013-04-12
11547,Makanzani Dispensary,-3.86938,39.60597,Taken with GPS Device,SARAM 2013,2013-04-16
11627,Mkang'ombe Community Dispensary,-4.19715,39.14305,Taken with GPS Device,SARAM 2013,2013-04-11
16182,Khadija Medical Clinic,-3.89755,39.60843,Taken with GPS Device,SARAM 2013,2013-04-16
11253,Bofu Dispensary,-3.98008,39.43351,Taken with GPS Device,SARAM 2013,2013-04-11
16301,Northern Medical Clinic,3.93529,41.85414,Taken with GPS Device,SARAM 2013,2013-04-15
17871,Baobab Medical Clinic,-3.85775,39.47657,Taken with GPS Device,SARAM 2013,2013-04-18
19189,Kamkomani Dispensary,-3.88438,39.51892,Taken with GPS Device,SARAM 2013,2013-04-18
11585,Mazeras Dispensary,-3.96724,39.5453,Taken with GPS Device,SARAM 2013,2013-04-12
16181,Union Medical Dispensary,-3.88328,39.5949,Taken with GPS Device,SARAM 2013,2013-04-15
16185,Bengo Medical Clinic,-3.92993,39.56932,Taken with GPS Device,SARAM 2013,2013-04-17
17537,Deteni Medical Clinic,-3.94773,39.56164,Taken with GPS Device,SARAM 2013,2013-04-16
16294,Alnas Medical Clinic,3.93456,41.85067,Taken with GPS Device,SARAM 2013,2013-04-19
18056,Homebase Medical Clinic,-4.13919,39.31985,Taken with GPS Device,SARAM 2013,2013-04-10
17026,Kambe Kikomani Medical Clinic,-3.84001,39.62001,Taken with GPS Device,SARAM 2013,2013-04-18
16186,Dagamra Medical Clinic,-3.92117,39.53951,Taken with GPS Device,SARAM 2013,2013-04-16
16305,Tawakal Medical Clinic (Mandera East),3.92841,41.76749,Taken with GPS Device,SARAM 2013,2013-04-22
18267,Bomu Medical Centre (Mariakani),-3.87523,39.48301,Taken with GPS Device,SARAM 2013,2013-04-18
16311,Bismillahi Medical Clinic,3.93944,41.85759,Taken with GPS Device,SARAM 2013,2013-04-18
11529,Mabati Medical Clinic,-3.87494,39.48281,Taken with GPS Device,SARAM 2013,2013-04-18
16188,Mariakani Community Health Care Services,-3.85987,39.47604,Taken with GPS Device,SARAM 2013,2013-04-16
16299,Al-ansar Medical Clinic,3.93993,41.85313,Taken with GPS Device,SARAM 2013,2013-04-18
16518,Kinango Medical Clinic,-4.14047,39.31687,Taken with GPS Device,SARAM 2013,2013-04-10
18095,Matumbi Dispensary,-3.96778,39.38053,Taken with GPS Device,SARAM 2013,2013-04-12
16313,Buruburu Dispensary,3.94499,41.8665,Taken with GPS Device,SARAM 2013,2013-04-18
11532,Madamani Dispensary,-3.39435,39.74878,Taken with GPS Device,SARAM 2013,2013-04-11
17869,Hope Medical Clinic (Mariakani),-3.86167,39.47307,Taken with GPS Device,SARAM 2013,2013-04-15
11730,Palakumi Dispensary,-3.62565,39.60708,Taken with GPS Device,SARAM 2013,2013-04-11
11748,Rabai Rural Health Demonstration Centre,-3.93899,39.5664,Taken with GPS Device,SARAM 2013,2013-04-15
19215,Amaal Annex nursing,3.93705,41.85069,Taken with GPS Device,SARAM 2013,2013-04-25
11480,Kinango Hospital,-4.1395,39.31233,Taken with GPS Device,SARAM 2013,2013-04-10
16306,Bullampya Medical Clinic,3.93431,41.84988,Taken with GPS Device,SARAM 2013,2013-04-19
11566,Mariakani District Hospital,-3.8631,39.47214,Taken with GPS Device,SARAM 2013,2013-04-18
16519,Pendo Medical Clinic (Kinango),-4.13672,39.31505,Taken with GPS Device,SARAM 2013,2013-04-10
19459,Iqlas Medical Clinic,-0.43639,39.65105,Taken with GPS Device,SARAM 2013,2013-04-23
11756,Ribe Dispensary,-3.88517,39.63157,Taken with GPS Device,SARAM 2013,2013-04-16
16296,Mandera Medicare Clinic,3.93872,41.81802,Taken with GPS Device,SARAM 2013,2013-04-24
16308,Amal Medical Clinic,3.93702,41.83541,Taken with GPS Device,SARAM 2013,2013-04-19
13375,Jamii Nursing Home,3.93764,41.85515,Taken with GPS Device,SARAM 2013,2013-04-16
11618,Mirihini Dispensary,-3.43813,39.59241,Taken with GPS Device,SARAM 2013,2013-04-11
16190,Vishakani Dispensary,-3.83063,39.62322,Taken with GPS Device,SARAM 2013,2013-04-16
19210,Digfer Nursing Home,3.93636,41.85741,Taken with GPS Device,SARAM 2013,2013-04-25
11225,MRS - 77 Artillery Battallion (Mariakani),-3.80708,39.44444,Taken with GPS Device,SARAM 2013,2013-04-18
16189,Shangia Dispensary,-3.80689,39.41075,Taken with GPS Device,SARAM 2013,2013-04-17
17017,Kokotoni  Dispensary,-3.92054,39.52444,Taken with GPS Device,SARAM 2013,2013-04-16
13287,Al-Siha Nursing Home,3.93507,41.85256,Taken with GPS Device,SARAM 2013,2013-04-21
11601,Mgamboni Dispensary,-3.84538,39.66317,Taken with GPS Device,SARAM 2013,2013-04-17
16184,Bombululu Medical Clinic,-3.81572,39.62915,Taken with GPS Device,SARAM 2013,2013-04-17
13307,Blue Light Nursing Home,3.93767,41.86112,Taken with GPS Device,SARAM 2013,2013-04-15
13379,Khalalio Health center,3.96058,41.61371,Taken with GPS Device,SARAM 2013,2013-04-18
16192,Kambe Dispensary,-3.86215,39.64079,Taken with GPS Device,SARAM 2013,2013-04-15
17689,Viragoni Dispensary,-3.71134,39.51517,Taken with GPS Device,SARAM 2013,2013-04-17
13402,Mandera District Hospital,3.94137,41.86124,Taken with GPS Device,SARAM 2013,2013-04-22
11404,Gotani Dispensary,-3.7863,39.54034,Taken with GPS Device,SARAM 2013,2013-04-15
16307,Drugmart Medical Clinic,3.93799,41.86005,Taken with GPS Device,SARAM 2013,2013-04-19
11497,Kizingo Health Centre,-3.78195,39.67704,Taken with GPS Device,SARAM 2013,2013-04-12
11282,Chasimba Health Centre,-3.73513,39.70028,Taken with GPS Device,SARAM 2013,2013-04-11
11818,St Luke's (ACK) Hospital  Kaloleni,-3.81187,39.6331,Taken with GPS Device,SARAM 2013,2013-04-18
13362,Hareri Dispensary,3.94695,41.47297,Taken with GPS Device,SARAM 2013,2013-04-22
11880,Vigurungani Dispensary,-4.04149,39.16316,Taken with GPS Device,SARAM 2013,2013-04-13
16179,Maryango Medical Clinic,-3.47943,39.52339,Taken with GPS Device,SARAM 2013,2013-04-12
11287,Chizi Medical Clinic,-3.74677,39.68632,Taken with GPS Device,SARAM 2013,2013-04-11
11359,Dzikunze Dispensary,-3.29437,39.74882,Taken with GPS Device,SARAM 2013,2013-04-10
16191,Chalani Dispensary,-3.75508,39.63076,Taken with GPS Device,SARAM 2013,2013-04-18
18297,Huruma Medical Clinic (Bamba),-3.53923,39.52435,Taken with GPS Device,SARAM 2013,2013-04-11
11392,Giriama Mission Dispensary,-3.81442,39.58588,Taken with GPS Device,SARAM 2013,2013-04-17
13348,Girissa Dispensary,3.93688,41.23921,Taken with GPS Device,SARAM 2013,2013-04-19
11609,Midoina Dispensary,-3.56209,39.32264,Taken with GPS Device,SARAM 2013,2013-04-11
13423,Rhamu Sub-District Hospital,3.93331,41.22527,Taken with GPS Device,SARAM 2013,2013-04-17
13456,Yabicho Health Centre,3.93512,41.16512,Taken with GPS Device,SARAM 2013,2013-04-20
13396,Libehiya Dispensary,3.82822,41.52689,Taken with GPS Device,SARAM 2013,2013-04-22
13295,Athibohol Dispensary,1.85794,39.46997,Taken with GPS Device,SARAM 2013,2013-04-19
16520,Samburu Medical Centre,-3.79466,39.26276,Taken with GPS Device,SARAM 2013,2013-04-16
13424,Rhamudimtu Health Centre,4.01832,41.06617,Taken with GPS Device,SARAM 2013,2013-04-19
11481,Kinarani Dispensary,-3.72962,39.579,Taken with GPS Device,SARAM 2013,2013-04-17
15662,St Patrick's Kanamkemer Dispensary,3.10728,35.60373,Taken with GPS Device,SARAM 2013,2013-04-15
17478,Naotin Dispensary,3.05303,35.60373,Taken with GPS Device,SARAM 2013,2013-04-12
13308,Bodhai Dispensary,-1.80659,40.67837,Taken with GPS Device,SARAM 2013,2013-04-20
13324,Danyere Health Centre,0.00674,38.74022,Taken with GPS Device,SARAM 2013,2013-04-20
18765,Jena Medical Clinic,3.11045,35.60758,Taken with GPS Device,SARAM 2013,2013-04-20
14663,Kalokol (AIC) Health Centre,3.5297,35.86744,Taken with GPS Device,SARAM 2013,2013-04-10
15275,Nadoto Dispensary,3.08572,36.09294,Taken with GPS Device,SARAM 2013,2013-04-25
15301,Namukuse Dispensary,3.48958,35.93006,Taken with GPS Device,SARAM 2013,2013-04-19
17479,Longech Dispensary,3.439545,35.93006,Taken with GPS Device,SARAM 2013,2013-04-19
12142,Kalacha Dispensary (Chalbi),3.12688,37.42475,Taken with GPS Device,SARAM 2013,2013-04-26
15656,St Mary's Kalokol Primary Health Care Programme,3.53543,35.86137,Taken with GPS Device,SARAM 2013,2013-04-20
15307,Naoros Dispensary,3.12906,36.06594,Taken with GPS Device,SARAM 2013,2013-04-17
18846,Eliye Springs Community Dispensary,3.23246,36.01971,Taken with GPS Device,SARAM 2013,2013-04-18
14838,Kerio Health Centre,3.00054,36.02577,Taken with GPS Device,SARAM 2013,2013-04-12
11473,Kilibasi Dispensary,-3.97151,38.95605,Taken with GPS Device,SARAM 2013,2013-04-15
14687,Kangatosa Dispensary,3.127,35.96475,Taken with GPS Device,SARAM 2013,2013-04-11
11292,Cornerstone Medical Clinic,-4.17441,39.45421,Taken with GPS Device,SARAM 2013,2013-04-12
11507,Kwale District Hospital,-4.1753,39.45515,Taken with GPS Device,SARAM 2013,2013-04-04
15084,Lorengelup Dispensary,3.03066,35.56076,Taken with GPS Device,SARAM 2013,2013-04-17
15285,Nakurio Dispensary,2.52243,36.09491,Taken with GPS Device,SARAM 2013,2013-04-22
14685,Kangagetei Dispensary,3.1551,35.86313,Taken with GPS Device,SARAM 2013,2013-04-12
13459,Yumbis Dispensary,-0.11344,40.23067,Taken with GPS Device,SARAM 2013,2013-04-20
14994,Kosikiria Dispensary,2.92214,35.9471,Taken with GPS Device,SARAM 2013,2013-04-19
14795,Kapua Dispensary,3.42186,35.65948,Taken with GPS Device,SARAM 2013,2013-04-05
14656,Kakwanyang Dispensary,3.15338,35.67634,Taken with GPS Device,SARAM 2013,2013-04-12
15634,St Catherine's Napetet Dispensary,3.11178,35.61719,Taken with GPS Device,SARAM 2013,2013-04-10
15050,Loima Medical Clinic,3.11323,35.59764,Taken with GPS Device,SARAM 2013,2013-04-20
15535,Savannah Medical Clinic,3.11323,35.59956,Taken with GPS Device,SARAM 2013,2013-04-17
17184,EMESC Medical Clinic,3.11988,35.60059,Taken with GPS Device,SARAM 2013,2013-04-18
14863,Kikton Medical Clinic,3.12209,35.60041,Taken with GPS Device,SARAM 2013,2013-04-16
15629,St Augustine Youth Friendly Centre,3.1203,35.59682,Taken with GPS Device,SARAM 2013,2013-04-22
15749,Tumaini Medical Clinic (Turkana Central),3.12063,35.5994,Taken with GPS Device,SARAM 2013,2013-04-19
14186,Afya Bora Medical Clinic (Turkana Central),3.11942,35.59954,Taken with GPS Device,SARAM 2013,2013-04-22
15049,Lodwar District Hospital,3.12186,35.60079,Taken with GPS Device,SARAM 2013,2013-04-15
18764,Akicha Medical Services,3.10973,35.60969,Taken with GPS Device,SARAM 2013,2013-04-21
14231,Baraka Medical Clinic (Turkana Central),3.10737,35.60484,Taken with GPS Device,SARAM 2013,2013-04-20
16864,Ngongoni Dispensary (Kyuso),-0.27723,38.15774,Taken with GPS Device,SARAM 2013,2013-04-17
14683,Kanawoi Dispensary,3.1057,35.6145,Taken with GPS Device,SARAM 2013,2013-04-12
14527,GK Prisons Dispensary (Turkana Central),3.10735,35.60491,Taken with GPS Device,SARAM 2013,2013-04-15
11195,Acode Medical Clinic Maungu,-3.55733,38.75037,Taken with GPS Device,SARAM 2013,2013-04-15
13288,Amuma Dispensary,-0.11627,40.29318,Taken with GPS Device,SARAM 2013,2013-04-23
15274,Nadapal Primary Health Care Programme,3.07395,35.50875,Taken with GPS Device,SARAM 2013,2013-04-16
15661,St Monica's Nakwamekwi Dispensary,3.17834,35.57017,Taken with GPS Device,SARAM 2013,2013-04-13
11561,Manyani Dispensary,-3.09496,38.48972,Taken with GPS Device,SARAM 2013,2013-04-11
11705,Ndovu Health Centre,-3.39267,38.58444,Taken with GPS Device,SARAM 2013,2013-04-11
11509,KWS Dispensary,-3.09766,38.47181,Taken with GPS Device,SARAM 2013,2013-04-11
19090,Voi Medical Clinix,-3.39373,38.56071,Taken with GPS Device,SARAM 2013,2013-04-17
17703,Voi Roadside Clinic,-3.39506,38.55942,Taken with GPS Device,SARAM 2013,2013-04-17
17704,Voi Medical Centre,-3.39369,38.55993,Taken with GPS Device,SARAM 2013,2013-04-16
11757,Riflot Medical Centre,-3.39303,38.55819,Taken with GPS Device,SARAM 2013,2013-04-16
19089,Voi Dental,-3.39398,38.56378,Taken with GPS Device,SARAM 2013,2013-04-18
19092,Tumaini Clinic Voi,-3.3954,38.5581,Taken with GPS Device,SARAM 2013,2013-04-16
15094,Loturerei Dispensary,2.93374,35.61002,Taken with GPS Device,SARAM 2013,2013-04-15
11603,Mgange Nyika Health Centre,-3.41821,38.31012,Taken with GPS Device,SARAM 2013,2013-04-15
18313,Corner clinic,-3.39118,38.56269,Taken with GPS Device,SARAM 2013,2013-04-16
11647,Mount View Nursing  & Maternity Home,-3.39408,38.56341,Taken with GPS Device,SARAM 2013,2013-04-16
13294,Ashabito Health Centre,3.55206,40.87104,Taken with GPS Device,SARAM 2013,2013-04-26
18851,Mandera West Nursing Home,3.4,40.22473,Taken with GPS Device,SARAM 2013,2013-04-24
11641,Moi District Hospital Voi,-3.38928,38.56007,Taken with GPS Device,SARAM 2013,2013-04-16
11817,St Joseph's Shelter Of Hope,-3.39082,38.53897,Taken with GPS Device,SARAM 2013,2013-04-15
12034,Gatunga Health Centre,-0.29656,37.9423,Taken with GPS Device,SARAM 2013,2013-04-11
18080,Gatunga Model H/C,-0.10257,38.01565,Taken with GPS Device,SARAM 2013,2013-04-11
12552,Mugas Clinic,-0.09977,38.011,Taken with GPS Device,SARAM 2013,2013-04-25
11552,Makwasinyi Dispensary,-3.81318,38.68151,Taken with GPS Device,SARAM 2013,2013-04-11
11455,Kasigau RDCH,-3.81351,38.63989,Taken with GPS Device,SARAM 2013,2013-04-12
13414,Ollo Health Centre,3.89405,40.86729,Taken with GPS Device,SARAM 2013,2013-04-24
16314,Takaba Nomadic Mobile,3.54194,40.10249,Taken with GPS Device,SARAM 2013,2013-04-22
11262,Bughuta Health centre,-3.68821,38.66798,Taken with GPS Device,SARAM 2013,2013-04-11
11572,Marungu Health Centre,-3.61121,38.7293,Taken with GPS Device,SARAM 2013,2013-04-12
11591,Mbulia Dispensary,-3.25388,38.43901,Taken with GPS Device,SARAM 2013,2013-04-11
11839,Tausa Health Centre,-3.34155,38.50154,Taken with GPS Device,SARAM 2013,2013-04-17
17120,shelemba,-3.43143,38.46534,Taken with GPS Device,SARAM 2013,2013-04-12
11390,Ghazi Dispensary,-3.28937,38.44621,Taken with GPS Device,SARAM 2013,2013-04-15
17040,Kenya Medical Training College Lodwar,3.66576,35.32377,Taken with GPS Device,SARAM 2013,2013-04-15
11451,Kajire Dispensary,-3.5172,38.6079,Taken with GPS Device,SARAM 2013,2013-04-12
13290,Arabia Health Center,3.94118,41.86135,Taken with GPS Device,SARAM 2013,2013-04-17
16241,Rukenya Dispensary,-0.18993,37.8941,Taken with GPS Device,SARAM 2013,2013-04-10
12805,Tseikuru Sub-District Hospital,-0.40029,38.22108,Taken with GPS Device,SARAM 2013,2013-04-18
11656,Msau Dispensary,-3.41394,38.40845,Taken with GPS Device,SARAM 2013,2013-04-11
11457,David Kayanda Dispensary,-3.37007,38.47518,Taken with GPS Device,SARAM 2013,2013-04-10
12547,Mtito Andei Health Centre,-2.68997,38.17038,Taken with GPS Device,SARAM 2013,2013-04-17
12694,Nzoila Dispensary,-2.57764,38.15403,Taken with GPS Device,SARAM 2013,2013-04-16
12131,Kajiampau Dispensary,-0.31805,37.85015,Taken with GPS Device,SARAM 2013,2013-04-17
12018,Suleman Farooq Memorial Centre,-2.69432,38.16726,Taken with GPS Device,SARAM 2013,2013-04-23
12132,Kajuki Health Centre,-0.33542,37.83123,Taken with GPS Device,SARAM 2013,2013-04-17
11704,Ndome Dispensary (Taita),-3.30278,38.47813,Taken with GPS Device,SARAM 2013,2013-04-15
12159,Kamaindi Dispensary,-0.38057,37.83906,Taken with GPS Device,SARAM 2013,2013-04-16
11694,Mwatate Sisal Estate Clinic,-3.50008,38.40001,Taken with GPS Device,SARAM 2013,2013-04-16
12319,Kina Dispensary,0.26177,38.12311,Taken with GPS Device,SARAM 2013,2013-04-16
11469,Kighombo Dispensary,-3.39391,38.45036,Taken with GPS Device,SARAM 2013,2013-04-10
15085,Lorengippi Dispensary,2.57383,35.9914,Taken with GPS Device,SARAM 2013,2013-04-17
13353,Guba Dispensary,3.8624,40.49993,Taken with GPS Device,SARAM 2013,2013-04-20
18333,Jacky Medical Clinic,-0.01287,37.99537,Taken with GPS Device,SARAM 2013,2013-04-12
15755,Turkwel Health Centre,1.91295,35.36278,Taken with GPS Device,SARAM 2013,2013-04-11
15314,Nasolot Dispensary,1.82186,35.40019,Taken with GPS Device,SARAM 2013,2013-04-11
12793,Thanantu Faith Clinic Dispensary,-0.00596,37.95401,Taken with GPS Device,SARAM 2013,2013-04-12
11415,Horesha Medicalicare,-3.50941,38.37919,Taken with GPS Device,SARAM 2013,2013-04-11
11441,Joy Medical Clinic (Mwatate),-3.5037,38.37843,Taken with GPS Device,SARAM 2013,2013-04-16
19115,Sala Dispensary,3.933343,41.27377,Taken with GPS Device,SARAM 2013,2013-04-20
12621,Chandaria Mwania Dispensary,-2.078,37.92649,Taken with GPS Device,SARAM 2013,2013-04-11
11925,Amani Medical Clinic (Kibwezi),-2.59398,38.07652,Taken with GPS Device,SARAM 2013,2013-04-22
12072,Iiani Dispensary,-1.87555,37.87856,Taken with GPS Device,SARAM 2013,2013-04-10
17127,Manoa dispensary,-3.59492,38.33253,Taken with GPS Device,SARAM 2013,2013-04-16
12813,Tunyai Dispensary,-0.17579,37.88562,Taken with GPS Device,SARAM 2013,2013-04-22
12423,Lailuba Dispensary,0.24108,37.75235,Taken with GPS Device,SARAM 2013,2013-04-11
11650,Mpinzinyi Health Centre,-3.45754,38.37885,Taken with GPS Device,SARAM 2013,2013-04-10
17108,Masol Dispensary,1.55952,35.5275,Taken with GPS Device,SARAM 2013,2013-04-13
18909,Stadia Medical Clinic,-0.08099,37.83386,Taken with GPS Device,SARAM 2013,2013-04-11
12663,Ngwata Health Centre,-2.52946,38.04965,Taken with GPS Device,SARAM 2013,2013-04-15
12390,Kunati Health Centre,0.0929,37.91834,Taken with GPS Device,SARAM 2013,2013-04-18
17917,Tumaini Maternity and Nursing Home (Kibwezi),-2.41888,37.96664,Taken with GPS Device,SARAM 2013,2013-04-24
12451,Makandune Dispensary,-0.08101,37.83387,Taken with GPS Device,SARAM 2013,2013-04-11
15130,Marich Dispensary,1.53183,35.45165,Taken with GPS Device,SARAM 2013,2013-04-11
11695,Mwatate Sub-District Hospital,-3.50732,38.36864,Taken with GPS Device,SARAM 2013,2013-04-15
13300,Banisa Health Centre,3.94034,40.34418,Taken with GPS Device,SARAM 2013,2013-04-18
12692,Nzeveni Dispensary,-2.59452,37.99692,Taken with GPS Device,SARAM 2013,2013-04-16
12674,Nthambiro Catholic Dispensary,0.24956,38.02821,Taken with GPS Device,SARAM 2013,2013-04-15
12675,Nthambiro Dispensary,0.24956,38.02821,Taken with GPS Device,SARAM 2013,2013-04-15
12759,St Lukes Cottage Hospital,-0.06174,37.85816,Taken with GPS Device,SARAM 2013,2013-04-10
19076,Kawongo Medical Centre,-1.59769,37.87552,Taken with GPS Device,SARAM 2013,2013-04-22
18312,Bura Health Centre Taita,-3.50014,38.31577,Taken with GPS Device,SARAM 2013,2013-04-15
12290,Kiburine Dispensary,0.01648,37.83896,Taken with GPS Device,SARAM 2013,2013-04-08
15564,Sigor Sub District Hospital,1.4855,35.46777,Taken with GPS Device,SARAM 2013,2013-04-11
16963,Yekanga Dispensary,-1.91837,37.83588,Taken with GPS Device,SARAM 2013,2013-04-16
16554,Mwashuma Dispensary (CDF),-3.4912,38.27077,Taken with GPS Device,SARAM 2013,2013-04-15
17920,Kari Dispensary (Kiboko),-2.25621,37.72678,Taken with GPS Device,SARAM 2013,2013-04-12
12535,Mitunguu Market Clinic,-0.11138,37.78402,Taken with GPS Device,SARAM 2013,2013-04-11
17129,Mitunguu Catholic Dispensary,-0.10637,37.78561,Taken with GPS Device,SARAM 2013,2013-04-11
12455,Makindu District Hospital,-2.28436,37.82463,Taken with GPS Device,SARAM 2013,2013-04-11
12533,Mitunguu CCS Dispensary,-0.11384,37.78796,Taken with GPS Device,SARAM 2013,2013-04-10
15073,Lomut Dispensary,1.39733,35.58741,Taken with GPS Device,SARAM 2013,2013-04-12
12238,Kathulumbi Dispensary,-1.73296,37.78868,Taken with GPS Device,SARAM 2013,2013-04-06
12534,Mitunguu Dispensary,-0.10572,37.78144,Taken with GPS Device,SARAM 2013,2013-04-10
12575,Mumo (AIC) Health Centre,-2.01237,37.77248,Taken with GPS Device,SARAM 2013,2013-04-16
15621,South Horr Dispensary,2.09279,36.90593,Taken with GPS Device,SARAM 2013,2013-04-13
18288,Grace Medical Clinic (Imenti South),-0.10645,37.78083,Taken with GPS Device,SARAM 2013,2013-04-11
12398,Kwakavisi Dispensary,-1.98399,37.69768,Taken with GPS Device,SARAM 2013,2013-04-12
11300,Dawson Mwanyumba Dispensary,-3.43376,38.37417,Taken with GPS Device,SARAM 2013,2013-04-10
12191,Kanzokea Health Centre,-1.92718,37.79707,Taken with GPS Device,SARAM 2013,2013-04-12
17433,Katulye Dispensary-nzaui,-1.98491,37.59554,Taken with GPS Device,SARAM 2013,2013-04-13
18811,Kalima Dispensary,-1.98491,37.59554,Taken with GPS Device,SARAM 2013,2013-04-18
14387,Chesta Dispensary,1.40987,35.53051,Taken with GPS Device,SARAM 2013,2013-04-12
16253,Kitonyoni Dispensary,-1.95395,37.65402,Taken with GPS Device,SARAM 2013,2013-04-10
12212,Katagini Dispensary,-1.74623,37.72376,Taken with GPS Device,SARAM 2013,2013-04-03
11760,Rumangao Dispensary,-3.49341,38.58219,Taken with GPS Device,SARAM 2013,2013-04-18
11918,ACK Dispensary (Isiolo),0.35699,37.57572,Taken with GPS Device,SARAM 2013,2013-04-12
11764,Sagala Health Centre,-3.49349,38.58214,Taken with GPS Device,SARAM 2013,2013-04-18
12236,Kathonzweni Health Centre,-1.91523,37.72985,Taken with GPS Device,SARAM 2013,2013-04-08
12570,Mumbuni Dispensary (Maara),-0.27941,37.74216,Taken with GPS Device,SARAM 2013,2013-04-11
18907,Universal M Clinic,-0.01354,37.76867,Taken with GPS Device,SARAM 2013,2013-04-17
12484,Matiliku Catholic Dispensary,-1.94669,37.53644,Taken with GPS Device,SARAM 2013,2013-04-17
12493,Mavindini Health Centre,-1.82044,37.78624,Taken with GPS Device,SARAM 2013,2013-04-10
11265,Bura Mission Clinic,-3.45336,38.31328,Taken with GPS Device,SARAM 2013,2013-04-15
11508,Kwa-Mnegwa Dispensary,-3.4336,38.24283,Taken with GPS Device,SARAM 2013,2013-04-15
11977,Cottolengo Mission Hospital,-0.00245,37.76659,Taken with GPS Device,SARAM 2013,2013-04-13
12026,Gaitu Dispensary,-0.01386,37.76409,Taken with GPS Device,SARAM 2013,2013-04-11
11302,Dembwa Dispensary,-3.44819,38.36394,Taken with GPS Device,SARAM 2013,2013-04-12
17845,Uviluni Dispensary,-1.74953,37.67374,Taken with GPS Device,SARAM 2013,2013-04-08
18199,Nyumbani Village Catholic Dispensary,-1.31882,37.80472,Taken with GPS Device,SARAM 2013,2013-04-09
16223,Giaki Clinic,0.03227,37.76375,Taken with GPS Device,SARAM 2013,2013-04-10
12312,Kilili Dispensary,-1.91736,37.59505,Taken with GPS Device,SARAM 2013,2013-04-19
18413,Muusini Dispensary(Makueni),-1.85327,37.72627,Taken with GPS Device,SARAM 2013,2013-04-15
16222,Mutethia Clinic,0.03194,37.76385,Taken with GPS Device,SARAM 2013,2013-04-09
11589,Mbale Health Centre,-3.37928,38.38292,Taken with GPS Device,SARAM 2013,2013-04-15
18133,Wote Health clinic,-1.78108,37.62808,Taken with GPS Device,SARAM 2013,2013-04-08
12135,Kako Dispensary,-1.70279,37.6473,Taken with GPS Device,SARAM 2013,2013-04-06
12500,Mbeu Sub-District Hospital,0.05874,37.81668,Taken with GPS Device,SARAM 2013,2013-04-16
10093,Christian Community Services Wang'uru Dispensary,-0.68737,37.35187,Taken with GPS Device,SARAM 2013,2013-04-17
12119,Kaanwa Dispensary,-0.32152,37.72414,Taken with GPS Device,SARAM 2013,2013-04-16
12571,Mumbuni Dispensary (Makueni),-1.85564,37.60425,Taken with GPS Device,SARAM 2013,2013-04-11
17708,Ncooro Dispensary,0.24377,37.65696,Taken with GPS Device,SARAM 2013,2013-04-16
10850,New Line Laboratory,-0.68284,37.35984,Taken with GPS Device,SARAM 2013,2013-04-15
17445,Kithituni Health Care Clinic,-2.07986,37.47466,Taken with GPS Device,SARAM 2013,2013-04-22
12002,Emali Nursing Home,-2.07907,37.47313,Taken with GPS Device,SARAM 2013,2013-04-12
16962,Kambimawe Dispensary,-1.85218,37.66094,Taken with GPS Device,SARAM 2013,2013-04-10
17672,Mbaga Dispensary,-3.44355,38.31014,Taken with GPS Device,SARAM 2013,2013-04-17
14988,Konyao Dispensary,1.78654,35.05103,Taken with GPS Device,SARAM 2013,2013-04-15
10807,Mwea Medical Laboratory,-0.68439,37.35505,Taken with GPS Device,SARAM 2013,2013-04-15
16508,Mwea Medical Clinic,-0.68439,37.35503,Taken with GPS Device,SARAM 2013,2013-04-16
12043,Gitine Medical Clinic,-0.09389,37.42279,Taken with GPS Device,SARAM 2013,2013-04-18
12042,Gitine Dispensary,-0.16105,37.70832,Taken with GPS Device,SARAM 2013,2013-04-10
13884,Nyakongo Dispensary,-0.20083,35.01355,Taken with GPS Device,SARAM 2013,2013-04-09
12615,Muutiokiama Health Centre,-0.12312,37.72661,Taken with GPS Device,SARAM 2013,2013-04-10
10765,St.Mulumba Mission Hospital,-1.05501,37.10317,Taken with GPS Device,SARAM 2013,2013-04-25
18931,Mutethia Clinic Magutuni,-0.22901,37.7363,Taken with GPS Device,SARAM 2013,2013-04-18
17045,Wakor Dispensary,1.49439,35.40801,Taken with GPS Device,SARAM 2013,2013-04-13
12202,Karimonga Dispensary,-0.01787,37.72891,Taken with GPS Device,SARAM 2013,2013-04-10
17707,kibiru dispensary,0.29109,37.62391,Taken with GPS Device,SARAM 2013,2013-04-12
12445,Magutuni District Hospital,-0.22513,37.73651,Taken with GPS Device,SARAM 2013,2013-04-12
12622,Mwanyani Dispensary,-2.03,37.51221,Taken with GPS Device,SARAM 2013,2013-04-16
16366,Nakwijit Dispensary,1.63925,35.10501,Taken with GPS Device,SARAM 2013,2013-04-11
15119,Mangu Dispensary(Rongai),-0.22109,35.95241,Taken with GPS Device,SARAM 2013,2013-04-20
12273,Kiamuchii Dispensary,-0.38966,37.70472,Taken with GPS Device,SARAM 2013,2013-04-18
12579,Murambani Dispensary,-0.28023,37.70511,Taken with GPS Device,SARAM 2013,2013-04-11
10373,Jehova Jireh Clinic,-0.47564,37.23723,Taken with GPS Device,SARAM 2013,2013-04-04
14378,Cherangan Dispensary,1.60268,35.10501,Taken with GPS Device,SARAM 2013,2013-04-11
12351,Divine Mercy Kithatu Dispensary,-0.13758,37.69676,Taken with GPS Device,SARAM 2013,2013-04-09
14785,Kaptiony Dispensary,0.70086,35.73353,Taken with GPS Device,SARAM 2013,2013-04-12
15215,Molok Dispensary,0.30135,35.97569,Taken with GPS Device,SARAM 2013,2013-04-13
10805,Mwea Medical Clinic Kagio,-0.62831,37.25011,Taken with GPS Device,SARAM 2013,2013-04-17
16229,Mweru Dispensary (Imenti South),-0.17799,37.70588,Taken with GPS Device,SARAM 2013,2013-04-10
17214,Kiija dispensary,-0.04492,37.73265,Taken with GPS Device,SARAM 2013,2013-04-08
12270,Kiairugu Dispensary,-0.23252,37.71035,Taken with GPS Device,SARAM 2013,2013-04-12
12350,Kithatu Medical Clinic,-0.13666,37.69626,Taken with GPS Device,SARAM 2013,2013-04-10
10070,Bigem Clinic,-0.62636,37.2557,Taken with GPS Device,SARAM 2013,2013-04-21
12020,Fr Meru Dispensary,0.03407,37.72172,Taken with GPS Device,SARAM 2013,2013-04-19
17451,Kitamwiki Community Dispensary,-1.13792,37.981,Taken with GPS Device,SARAM 2013,2013-04-22
12338,Kiroo Clinic,-0.22141,37.70911,Taken with GPS Device,SARAM 2013,2013-04-09
12649,Ngeru Dispensary,-0.25845,37.66602,Taken with GPS Device,SARAM 2013,2013-04-11
15622,South Horr Catholic Health Centre,1.78523,36.79277,Taken with GPS Device,SARAM 2013,2013-04-13
12721,Rwanyange Dispensary,0.07259,37.72451,Taken with GPS Device,SARAM 2013,2013-04-05
12232,Kathigu Health Centre,-0.15809,37.68631,Taken with GPS Device,SARAM 2013,2013-04-10
10398,Kagio Catholic Dispensary (Mary Immucate Catholic Dispensary),-0.63112,37.25387,Taken with GPS Device,SARAM 2013,2013-04-18
15189,Miskwony Dispensary,1.5807,35.14958,Taken with GPS Device,SARAM 2013,2013-04-12
12315,Kimachia Dispensary,0.10942,37.76346,Taken with GPS Device,SARAM 2013,2013-05-01
12443,Magenka Dispensary,-0.42056,37.66579,Taken with GPS Device,SARAM 2013,2013-04-17
10449,Kamfas Clinic,-0.61019,37.20237,Taken with GPS Device,SARAM 2013,2013-04-18
12201,Karimba Dispensary,-0.3013,37.69087,Taken with GPS Device,SARAM 2013,2013-04-12
12134,Kakeani Dispensary,-1.15069,37.94251,Taken with GPS Device,SARAM 2013,2013-04-22
12208,Kasikeu Dispensaryá,-1.94705,37.38233,Taken with GPS Device,SARAM 2013,2013-04-10
15294,Namanga Health Centre,-2.54315,36.78729,Taken with GPS Device,SARAM 2013,2013-04-16
19489,Igane Health Centre,-0.04154,37.7211,Taken with GPS Device,SARAM 2013,2013-04-12
14635,Kacheliba Mobile clinic,1.48028,35.01351,Taken with GPS Device,SARAM 2013,2013-04-12
16233,Presbyterian TTC Rubate Health Centre,-0.39741,37.6815,Taken with GPS Device,SARAM 2013,2013-04-12
12339,Kirumi Dispensary,-0.24204,37.70238,Taken with GPS Device,SARAM 2013,2013-04-11
11923,Akachiu Health Centre,0.18318,37.95661,Taken with GPS Device,SARAM 2013,2013-04-12
11909,Wusi-Wutesia (ACK) Dispensary,-3.45531,38.3494,Taken with GPS Device,SARAM 2013,2013-04-11
14634,Kacheliba District Hospital,1.49008,35.01068,Taken with GPS Device,SARAM 2013,2013-04-10
15269,Nachecheyet Dispensary,1.49943,35.11936,Taken with GPS Device,SARAM 2013,2013-04-17
13648,Kaluo Dispensary,0.11195,34.33441,Taken with GPS Device,SARAM 2013,2013-04-17
12341,Kisau Sub District Hospital,-1.62784,37.55771,Taken with GPS Device,SARAM 2013,2013-04-08
14962,Kodich Dispensary,1.63284,35.04483,Taken with GPS Device,SARAM 2013,2013-04-11
10106,Delina Health Care,-0.49033,36.96894,Taken with GPS Device,SARAM 2013,2013-04-25
12659,Nguruki-Iruma Dispensary,-0.22126,37.689,Taken with GPS Device,SARAM 2013,2013-04-09
15704,Tamkal Dispensary,1.36621,35.47326,Taken with GPS Device,SARAM 2013,2013-04-13
12234,Kathithi Dispensary,0.06099,37.70182,Taken with GPS Device,SARAM 2013,2013-04-12
14003,Othoro Sub. District Hospital,-0.89053,34.38688,Taken with GPS Device,SARAM 2013,2013-04-28
16075,Nasianda Dispensary,0.49896,34.45451,Taken with GPS Device,SARAM 2013,2013-04-26
16042,Mung'ung'u Dispensary,0.40444,34.41802,Taken with GPS Device,SARAM 2013,2013-04-18
16282,Kasongo Dispensary,-0.16046,35.1999,Taken with GPS Device,SARAM 2013,2013-04-09
16228,Thimangiri Medical Clinic,0.05151,37.69879,Taken with GPS Device,SARAM 2013,2013-04-11
12557,Mujwa Dispensary,-0.08485,37.73186,Taken with GPS Device,SARAM 2013,2013-04-10
13831,Muhoroni Sub-District Hospital,-0.15112,35.20573,Taken with GPS Device,SARAM 2013,2013-04-09
16956,Mwaani Dispensary,-1.85947,37.43452,Taken with GPS Device,SARAM 2013,2013-04-12
12399,Kwale Dispensary,-1.95949,37.28575,Taken with GPS Device,SARAM 2013,2013-04-10
16227,Joska Medical Care Clinic,0.0505,37.69875,Taken with GPS Device,SARAM 2013,2013-04-12
13960,Ogada Dispensary,-1.10196,34.28948,Taken with GPS Device,SARAM 2013,2013-04-26
15216,Molos Dispensary,0.28087,35.99825,Taken with GPS Device,SARAM 2013,2013-04-12
16370,Orolwo Dispensary,1.58825,34.98584,Taken with GPS Device,SARAM 2013,2013-04-15
16462,Kariakomo Dispensary,-0.23938,37.67469,Taken with GPS Device,SARAM 2013,2013-04-11
12429,Limoro Dispensary,0.23037,37.72568,Taken with GPS Device,SARAM 2013,2013-04-12
13853,Ngodhe Dispensary,-0.71103,34.54157,Taken with GPS Device,SARAM 2013,2013-04-24
16967,Kyenzenzeni Dispensary,-1.81722,37.40139,Taken with GPS Device,SARAM 2013,2013-04-10
16955,Nthimbani Dispensary,-1.73518,37.51569,Taken with GPS Device,SARAM 2013,2013-04-15
14401,Delamere Clinic,-0.46866,36.1948,Taken with GPS Device,SARAM 2013,2013-04-18
12296,Kieni Kia Ndege Dispensary,-0.1904,37.68144,Taken with GPS Device,SARAM 2013,2013-04-10
12806,Tulia Dispensary,-1.18803,37.97604,Taken with GPS Device,SARAM 2013,2013-04-22
11720,Nyache Health Centre,-3.33853,38.38084,Taken with GPS Device,SARAM 2013,2013-04-10
14689,Kanyarkwat Dispensary,1.40867,35.03128,Taken with GPS Device,SARAM 2013,2013-04-12
16957,Itithini Dispensary,-1.73021,37.54727,Taken with GPS Device,SARAM 2013,2013-04-15
15467,Poole Dispensary,1.40867,35.03133,Taken with GPS Device,SARAM 2013,2013-04-12
15654,St Mary's Hospital (Naivasha),-0.41433,36.25722,Taken with GPS Device,SARAM 2013,2013-04-23
16373,Kangoletiang Dispensary,1.18684,35.22381,Taken with GPS Device,SARAM 2013,2013-04-15
11769,Sangekoro Dispensary,-3.34259,38.30337,Taken with GPS Device,SARAM 2013,2013-04-10
12337,Kirogine Dispensary,-0.09438,37.69298,Taken with GPS Device,SARAM 2013,2013-04-10
12554,Muguna Medical Clinic,-0.12758,37.67525,Taken with GPS Device,SARAM 2013,2013-04-17
12546,Mpukoni Health Centre,-0.38228,37.66304,Taken with GPS Device,SARAM 2013,2013-04-12
12162,Kambandi Dispensary,-0.35005,37.67238,Taken with GPS Device,SARAM 2013,2013-04-10
12181,Kanyakine District Hospital,-0.12923,37.67557,Taken with GPS Device,SARAM 2013,2013-04-10
13885,Nyakuru Dispensary,-0.78542,34.50906,Taken with GPS Device,SARAM 2013,2013-05-13
10707,Mathingira Medical Clinic,-0.54888,36.94385,Taken with GPS Device,SARAM 2013,2013-04-15
16374,Kiwawa (ACCK) Dispensary,2.01374,35.02646,Taken with GPS Device,SARAM 2013,2013-04-10
12447,Mailiari Dispensary,0.18683,37.71079,Taken with GPS Device,SARAM 2013,2013-04-16
12524,Mikinduri Health Centre,0.12999,37.85091,Taken with GPS Device,SARAM 2013,2013-04-12
12525,Mikinduri Sub-District Hospial,0.12386,37.83748,Taken with GPS Device,SARAM 2013,2013-04-17
12748,St Francis Health Centre,0.12529,37.71704,Taken with GPS Device,SARAM 2013,2013-04-17
16230,Gatankene Dispensary,-0.013549,37.65599,Taken with GPS Device,SARAM 2013,2013-04-11
12293,PCEA Kiengu Disp/Mat,0.07427,37.25127,Taken with GPS Device,SARAM 2013,2013-04-20
17736,Impact RDO Clinic,-1.06252,34.47072,Taken with GPS Device,SARAM 2013,2013-05-13
10869,Ngoliba Health Centre,-1.09859,37.33472,Taken with GPS Device,SARAM 2013,2013-04-24
12563,Mukuuni Dispensary,-0.39157,37.65198,Taken with GPS Device,SARAM 2013,2013-04-18
14037,Rapcom Nursing and Maternity Home,-0.81296,34.56866,Taken with GPS Device,SARAM 2013,2013-05-13
16231,Nkunjumu Dispensary,-0.17588,37.58958,Taken with GPS Device,SARAM 2013,2013-04-10
12587,Muthale Mission Hospital,-1.19246,38.00521,Taken with GPS Device,SARAM 2013,2013-04-16
12016,Family Health Clinic (Imenti South),-0.12636,37.67414,Taken with GPS Device,SARAM 2013,2013-04-18
14069,Saro Dispensary,-1.05872,34.41015,Taken with GPS Device,SARAM 2013,2013-04-25
16225,Kaithe Medical Clinic,0.10351,37.68147,Taken with GPS Device,SARAM 2013,2013-04-10
17962,Riria Medical Clinic,-0.21201,37.65603,Taken with GPS Device,SARAM 2013,2013-04-16
12672,Ntha Clinic,-0.35573,37.66688,Taken with GPS Device,SARAM 2013,2013-04-10
12580,Muringombugi Clinic,0.03043,37.68872,Taken with GPS Device,SARAM 2013,2013-04-10
11938,Azimio Medical Clinic (Meru South),-0.35511,37.66638,Taken with GPS Device,SARAM 2013,2013-04-18
13392,Lafey Sub-District Hospital,3.15093,41.1886,Taken with GPS Device,SARAM 2013,2013-04-17
10277,Gituamba Dispensary,-1.0359,37.20622,Taken with GPS Device,SARAM 2013,2013-04-24
12428,Limauru Dispensay,0.1515,37.70969,Taken with GPS Device,SARAM 2013,2013-04-12
12624,Mwendwa Clinic,0.16091,37.74728,Taken with GPS Device,SARAM 2013,2013-04-25
12272,Kiamuchairu Health Centre,-0.22133,37.66586,Taken with GPS Device,SARAM 2013,2013-04-09
13740,Lwala Dispensary,-0.67798,34.60902,Taken with GPS Device,SARAM 2013,2013-04-23
12758,St Lucy's Hospital,-0.32092,37.66036,Taken with GPS Device,SARAM 2013,2013-04-12
16224,Kaithe Stage Medcare Clinic,0.09885,37.6785,Taken with GPS Device,SARAM 2013,2013-04-16
12613,Muusini Dispensary,-1.42559,37.37117,Taken with GPS Device,SARAM 2013,2013-04-10
14315,Chemase Health Centre,-0.01376,35.06395,Taken with GPS Device,SARAM 2013,2013-04-10
12598,Mutionjuri Health Centre,0.17444,37.74845,Taken with GPS Device,SARAM 2013,2013-04-15
12391,Kunene Dispensary,0.12382,37.72872,Taken with GPS Device,SARAM 2013,2013-04-16
18822,Redeemed VCT,-0.33059,37.65416,Taken with GPS Device,SARAM 2013,2013-04-22
11680,Mvono Clinic,-3.40367,38.36592,Taken with GPS Device,SARAM 2013,2013-04-10
15446,Ortum Hospital,1.43746,35.35484,Taken with GPS Device,SARAM 2013,2013-04-11
12835,Uzima Medical Clinic (Imenti South),-0.18612,37.66818,Taken with GPS Device,SARAM 2013,2013-04-10
14229,Baraka Medical Clinic (Pokot Central),1.43881,35.35712,Taken with GPS Device,SARAM 2013,2013-04-11
15551,Serewo Health Centre,1.33196,35.00004,Taken with GPS Device,SARAM 2013,2013-04-12
11908,Wundanyi  Sub-district Hospital,-3.4028,38.36303,Taken with GPS Device,SARAM 2013,2013-04-15
12588,Muthambi Dispensary,-0.27363,37.6617,Taken with GPS Device,SARAM 2013,2013-04-10
10172,Enkasiti Roses Farm Clinic,-0.99607,37.24623,Taken with GPS Device,SARAM 2013,2013-04-23
13340,Fino Health Center,3.37929,41.41752,Taken with GPS Device,SARAM 2013,2013-04-22
12589,Muthambi Health Centre,-0.27457,37.66054,Taken with GPS Device,SARAM 2013,2013-04-10
15141,Maron Dispensary,0.12867,35.89593,Taken with GPS Device,SARAM 2013,2013-04-17
16234,Miathene District Hospital,0.15046,37.79109,Taken with GPS Device,SARAM 2013,2013-04-15
10643,Kiuu Dispensary,-0.60765,37.15552,Taken with GPS Device,SARAM 2013,2013-03-11
10349,Immaculate Heart of Mary Hospital,-1.06969,37.234,Taken with GPS Device,SARAM 2013,2013-07-09
13809,Minyenya Dispensary,-0.69214,34.6198,Taken with GPS Device,SARAM 2013,2013-04-26
12336,Kirindine Nursing Home,0.15088,37.67673,Taken with GPS Device,SARAM 2013,2013-04-12
12536,Mituntu Health Centre,0.17353,37.67673,Taken with GPS Device,SARAM 2013,2013-04-16
12829,Uringu Health Centre,0.1385,37.74737,Taken with GPS Device,SARAM 2013,2013-04-17
13850,Ngere Dispensary,-0.75643,34.57661,Taken with GPS Device,SARAM 2013,2013-04-27
12404,Kyambeke Dispensary,-1.59511,37.42175,Taken with GPS Device,SARAM 2013,2013-04-10
12743,St Ann Hospital,-0.19313,37.66709,Taken with GPS Device,SARAM 2013,2013-04-10
12081,Ikuu Dispensary,-0.3704,37.64686,Taken with GPS Device,SARAM 2013,2013-04-10
10048,Baricho Catholic Health Centre,-0.55406,37.22931,Taken with GPS Device,SARAM 2013,2013-04-22
16372,Kamla Bamako Initiative Dispensary,1.98984,35.3028,Taken with GPS Device,SARAM 2013,2013-05-09
12799,Tigania Hospital,0.19886,37.79136,Taken with GPS Device,SARAM 2013,2013-04-15
14082,Sibuoche Dispensary,-0.96494,34.37522,Taken with GPS Device,SARAM 2013,2013-04-26
12299,Kigogo Dispensary,-0.38721,37.63155,Taken with GPS Device,SARAM 2013,2013-04-18
10571,Kibirigwi Dispensary,-0.52603,37.17958,Taken with GPS Device,SARAM 2013,2013-04-18
14820,Kauriong Dispensary,2.09544,35.09494,Taken with GPS Device,SARAM 2013,2013-04-12
10617,Kinyangi Health Centre,-1.00323,37.27923,Taken with GPS Device,SARAM 2013,2013-04-25
14914,Kipsigak Baibai Dispensary,-0.00424,34.78087,Taken with GPS Device,SARAM 2013,2013-04-17
11972,Chuka Cottage Hospital,-0.33657,37.64737,Taken with GPS Device,SARAM 2013,2013-04-15
14019,Rabondo Dispensary,-0.84674,34.4848,Taken with GPS Device,SARAM 2013,2013-04-25
18986,Jamii Health Services,-0.22829,37.65316,Taken with GPS Device,SARAM 2013,2013-04-08
13664,Kehancha Clinic,-1.19453,34.61963,Taken with GPS Device,SARAM 2013,2013-05-12
12761,St Marks Dispensary (Kariene),-0.04513,37.67914,Taken with GPS Device,SARAM 2013,2013-04-12
13830,Muchebe Dispensary,-1.19747,34.49484,Taken with GPS Device,SARAM 2013,2013-04-27
13762,Mama Caro Clinic,-1.18054,34.62693,Taken with GPS Device,SARAM 2013,2013-04-27
11919,Afya Bora Clinic (Meru South),-0.33367,37.64403,Taken with GPS Device,SARAM 2013,2013-04-11
12297,Kiereni Dispensary,-0.3513,37.64953,Taken with GPS Device,SARAM 2013,2013-04-10
16235,Kiguchwa Dispensary,0.14758,37.8572,Taken with GPS Device,SARAM 2013,2013-04-17
12581,Muriri Clinic,0.21501,37.79092,Taken with GPS Device,SARAM 2013,2013-04-11
14166,Verna Health Centre,-0.79494,34.58272,Taken with GPS Device,SARAM 2013,2013-04-24
16293,Lafey Nomadic Dispensary,3.26771,41.21955,Taken with GPS Device,SARAM 2013,2013-04-19
12354,Kitheo Dispensary,0.15389,37.82409,Taken with GPS Device,SARAM 2013,2013-04-08
12380,KMC Clinic Mwichune,-0.09448,37.66361,Taken with GPS Device,SARAM 2013,2013-04-05
10562,Kianjege Dispensary,-0.574,37.16596,Taken with GPS Device,SARAM 2013,2013-04-17
17071,Rei dispensary,0.17018,37.78195,Taken with GPS Device,SARAM 2013,2013-04-15
17344,Kolwal Dispensary,-0.9873,34.50659,Taken with GPS Device,SARAM 2013,2013-04-26
14061,Royal Nursing Home,-0.75951,34.59881,Taken with GPS Device,SARAM 2013,2013-04-22
18824,Mbaruk Dispensary,-0.34838,36.22425,Taken with GPS Device,SARAM 2013,2013-04-23
13610,Huduma Clinic,-1.1923,34.62055,Taken with GPS Device,SARAM 2013,2013-04-24
12630,Mwonge Dispensary,-0.3611,37.62908,Taken with GPS Device,SARAM 2013,2013-04-10
10386,Juja Farm Health Centre,-1.16671,37.08161,Taken with GPS Device,SARAM 2013,2013-04-19
10774,Munyu Health Centre,-1.11445,37.16934,Taken with GPS Device,SARAM 2013,2013-04-23
11942,Baragu Health Centre,-0.24794,37.67972,Taken with GPS Device,SARAM 2013,2013-04-11
12683,Nyagani Dispensary,-0.28128,37.64214,Taken with GPS Device,SARAM 2013,2013-04-10
10041,Athi Dispensary,-1.16958,37.14497,Taken with GPS Device,SARAM 2013,2013-04-22
10305,Gumba Health Centre,-0.60503,37.13752,Taken with GPS Device,SARAM 2013,2013-03-11
10035,Approved School (Thika),-1.05914,37.13305,Taken with GPS Device,SARAM 2013,2013-04-23
12713,Ripples International Dispensary,0.12759,37.66702,Taken with GPS Device,SARAM 2013,2013-04-16
15218,Mombwo Dispensary,-0.09895,35.23655,Taken with GPS Device,SARAM 2013,2013-04-10
19127,Timau Dental Clinic,0.15419,37.6574,Taken with GPS Device,SARAM 2013,2013-04-17
14009,Oyani Health Centre,-1.0377,34.58732,Taken with GPS Device,SARAM 2013,2013-04-10
10565,Kianyaga Sub-District Hospital,-0.50418,37.32452,Taken with GPS Device,SARAM 2013,2013-04-24
13859,Nyabikaye Dispensary,-1.232,34.4858,Taken with GPS Device,SARAM 2013,2013-05-12
16632,Ruiri Medical Clinic,0.15416,37.65748,Taken with GPS Device,SARAM 2013,2013-04-16
10135,Dr Maina,-1.07156,37.093,Taken with GPS Device,SARAM 2013,2013-03-15
10769,Mungu Aponya Medical Clinic,-1.05841,37.10517,Taken with GPS Device,SARAM 2013,2013-04-25
13601,Health Mountain Hospital,-1.21052,34.65822,Taken with GPS Device,SARAM 2013,2013-05-13
16085,Nzoia Sugar Dispensary,0.56803,34.65321,Taken with GPS Device,SARAM 2013,2013-04-29
10023,AMA (Africa Muslim Agency) Clinic,-1.05914,37.11405,Taken with GPS Device,SARAM 2013,2013-04-23
10167,Emmanuel M/C VCT Centre,-1.05473,37.10909,Taken with GPS Device,SARAM 2013,2013-04-19
11145,Uzima Medical Clinic (Thika),-1.05859,37.10793,Taken with GPS Device,SARAM 2013,2013-05-01
13998,Otacho Dispensary,-0.84804,34.55513,Taken with GPS Device,SARAM 2013,2013-04-26
18881,Kiracha CFW Clinic,-0.38364,37.61115,Taken with GPS Device,SARAM 2013,2013-04-17
10574,Kiburu Dispensary,-0.5413,37.20747,Taken with GPS Device,SARAM 2013,2013-04-18
16569,Filhia Medical Clinic,0.154,37.65732,Taken with GPS Device,SARAM 2013,2013-04-19
13779,Masaba Health Centre,-1.11711,34.53263,Taken with GPS Device,SARAM 2013,2013-04-27
14114,St Kizito Health Centre,-1.1914,34.61312,Taken with GPS Device,SARAM 2013,2013-04-26
10740,MT. Sinai Nursing Home,-1.05229,37.0983,Taken with GPS Device,SARAM 2013,2013-04-12
14149,Tisinye Dispensary,-1.24648,34.56746,Taken with GPS Device,SARAM 2013,2013-05-12
11463,Kiangachinyi Dispensary,-3.46339,38.33865,Taken with GPS Device,SARAM 2013,2013-04-16
11095,Thika Medical Clinic,-1.06018,37.10968,Taken with GPS Device,SARAM 2013,2013-04-25
11110,Trans-Saharan Medical Clinic,-1.05798,37.10707,Taken with GPS Device,SARAM 2013,2013-04-22
18670,Karimaini Community Dispensary,-0.51988,37.21751,Taken with GPS Device,SARAM 2013,2013-04-18
16612,Muguna West Clinic,0.15303,37.65858,Taken with GPS Device,SARAM 2013,2013-04-11
14342,Chepkopegh Dipensary,1.45951,35.23047,Taken with GPS Device,SARAM 2013,2013-04-12
12331,Kiriani Dispensary,-0.25735,37.64372,Taken with GPS Device,SARAM 2013,2013-04-10
11976,Consolata Hospital (Nkubu),-0.06914,37.66691,Taken with GPS Device,SARAM 2013,2013-04-11
13517,Bugumbe Health Centre,-1.17283,34.43824,Taken with GPS Device,SARAM 2013,2013-04-27
10733,Mitubiri Dispensary,-1.02731,37.15415,Taken with GPS Device,SARAM 2013,2013-04-23
16754,Thika High School for the Blind,-1.03433,37.07058,Taken with GPS Device,SARAM 2013,2013-04-26
16646,Mwikia Clinic,-0.24713,37.64035,Taken with GPS Device,SARAM 2013,2013-04-11
10453,Kamumo Medical Clinic,-0.49467,37.35109,Taken with GPS Device,SARAM 2013,2013-04-22
12528,Minugu Dispensary,-0.30537,37.62907,Taken with GPS Device,SARAM 2013,2013-04-12
16753,Hamundia Health Centre,-1.1631,36.99889,Taken with GPS Device,SARAM 2013,2013-04-17
10142,Dr Mulingwa,-1.03633,37.07595,Taken with GPS Device,SARAM 2013,2013-04-23
10375,Jesmond (ACK) Dispensary (Mburi),-0.52172,37.37006,Taken with GPS Device,SARAM 2013,2013-04-26
10038,Asantey Clinic,-1.0349,37.0768,Taken with GPS Device,SARAM 2013,2013-04-25
16756,Family Health Options Kenya Clinic,-1.03051,37.07241,Taken with GPS Device,SARAM 2013,2013-04-11
12027,Gakoromone Dispensary,0.04863,37.66587,Taken with GPS Device,SARAM 2013,2013-04-10
10128,Dr Kimani Gicharo Clinic,-1.03427,37.07478,Taken with GPS Device,SARAM 2013,2013-04-26
16005,Matete Health Centre,0.55456,34.8057,Taken with GPS Device,SARAM 2013,2013-04-24
11975,Ciama Medical Clinic,-0.0639,37.66358,Taken with GPS Device,SARAM 2013,2013-04-16
10154,Dr Wachira,-1.03824,37.07855,Taken with GPS Device,SARAM 2013,2013-04-12
16505,M K M Clinic,-0.49623,37.35107,Taken with GPS Device,SARAM 2013,2013-04-24
11097,Thika Nursing Home,-1.04035,37.06921,Taken with GPS Device,SARAM 2013,2013-04-24
16721,Mogori-Komasimo Health Centre,-1.14276,34.5752,Taken with GPS Device,SARAM 2013,2013-05-12
12667,Nkubu Medical Clinic,-0.0643,37.66278,Taken with GPS Device,SARAM 2013,2013-04-09
10083,Central Memorial Hospital,-1.03557,37.08109,Taken with GPS Device,SARAM 2013,2013-04-22
15833,Bushiri Health Centre,0.36613,34.7292,Taken with GPS Device,SARAM 2013,2013-04-24
15901,Imbiakalo Dispensary,0.41007,34.75233,Taken with GPS Device,SARAM 2013,2013-04-28
10161,Ebenezer Medical Clinic (Thika),-1.0435,37.09389,Taken with GPS Device,SARAM 2013,2013-04-23
10178,Family Care Medical Clinic,-1.15877,36.9794,Taken with GPS Device,SARAM 2013,2013-04-24
13565,Getambwega Dispensary,-1.27715,34.58601,Taken with GPS Device,SARAM 2013,2013-04-27
16057,Mwichio Amua Medical Clinic,0.07349,34.60972,Taken with GPS Device,SARAM 2013,2013-04-26
12666,Nkubu Dispensary,-0.06787,37.66202,Taken with GPS Device,SARAM 2013,2013-04-10
10438,Kalimoni Hospital (Thika),-1.11605,37.01975,Taken with GPS Device,SARAM 2013,2013-04-19
16759,Mangu High School Clinic,-1.07414,37.04671,Taken with GPS Device,SARAM 2013,2013-04-22
13519,Bware Dispensary,-1.00098,34.52704,Taken with GPS Device,SARAM 2013,2013-04-27
10378,JKUAT Hospital,-1.10176,37.01437,Taken with GPS Device,SARAM 2013,2013-04-19
11005,Shammah Clinic,-1.090559,37.02143,Taken with GPS Device,SARAM 2013,2013-04-20
13665,Kehancha Nursing and Maternity Home,-1.18202,34.62389,Taken with GPS Device,SARAM 2013,2013-04-26
12277,Kiangondu Dispensary,-0.32099,37.6219,Taken with GPS Device,SARAM 2013,2013-04-15
10384,Joyland Medical Clinic,-1.10152,37.01366,Taken with GPS Device,SARAM 2013,2013-04-18
11047,St Luke Medical Care Clinic,-1.10524,37.01793,Taken with GPS Device,SARAM 2013,2013-04-18
18183,Dr Sharma Medical Clinic,-1.14387,36.96089,Taken with GPS Device,SARAM 2013,2013-04-11
19266,Precious Care Medical Centre,-1.19946,36.98251,Taken with GPS Device,SARAM 2013,2013-04-18
18184,Ruiru Health Clinic,-1.14567,36.96069,Taken with GPS Device,SARAM 2013,2013-04-12
12060,Highway Medical Clinic,-0.0403,37.66085,Taken with GPS Device,SARAM 2013,2013-04-10
11027,St Augastine,-1.09934,37.01669,Taken with GPS Device,SARAM 2013,2013-04-20
16750,Trinity Clinic (Ruiru),-1.09173,37.02038,Taken with GPS Device,SARAM 2013,2013-04-20
17875,Ack Mbiri Dispensary,-0.49449,37.39971,Taken with GPS Device,SARAM 2013,2013-04-26
13715,Komomange Dispensary,-1.19087,34.5863,Taken with GPS Device,SARAM 2013,2013-05-12
18106,Mathigu Road Medical Clinic,-1.14522,36.95735,Taken with GPS Device,SARAM 2013,2013-04-11
16094,Rotary Doctors Clinic,0.11257,34.59418,Taken with GPS Device,SARAM 2013,2013-04-25
18105,Transcon Wendo Medical Services,-1.14889,36.95877,Taken with GPS Device,SARAM 2013,2013-04-11
18200,Kalimoni Hospital (Ruiru),-1.14429,36.95616,Taken with GPS Device,SARAM 2013,2013-04-30
18552,Milcelt Medical Clinic,-1.20635,36.9576,Taken with GPS Device,SARAM 2013,2013-04-19
18761,Spa Nursing Home,-1.14276,36.98239,Taken with GPS Device,SARAM 2013,2013-04-26
17067,Antubochiu Dispensary,0.21061,37.94341,Taken with GPS Device,SARAM 2013,2013-04-19
13763,Mama Fridah Clinic,-1.13186,34.4717,Taken with GPS Device,SARAM 2013,2013-05-12
14097,Sony Medical Centre,-0.89366,34.53335,Taken with GPS Device,SARAM 2013,2013-04-25
14157,Ulanda Dispensary,-1.00703,34.58561,Taken with GPS Device,SARAM 2013,2013-04-25
10973,Ruiru Sub-District Hospital,-1.14404,36.9562,Taken with GPS Device,SARAM 2013,2013-05-01
17490,Nazareth Hospital  (Ruiru),-1.14729,36.94985,Taken with GPS Device,SARAM 2013,2013-04-14
12744,St Anne Kariene Dispensary,-0.04068,37.66195,Taken with GPS Device,SARAM 2013,2013-04-08
10940,Plainsview Nursing Home,-1.15274,36.95942,Taken with GPS Device,SARAM 2013,2013-04-12
18559,Jacaranda Health Limited (Ruiru),-1.16644,36.96015,Taken with GPS Device,SARAM 2013,2013-04-25
16570,Gakoromone Medical Clinic,0.04636,37.6595,Taken with GPS Device,SARAM 2013,2013-04-15
10974,Ruiru Hospital Limited,-1.14414,36.95795,Taken with GPS Device,SARAM 2013,2013-04-29
16757,Penta Flowers Clinic,-1.09107,36.99964,Taken with GPS Device,SARAM 2013,2013-04-25
18558,Kwihota Medical Clinic,-1.15896,36.95739,Taken with GPS Device,SARAM 2013,2013-04-25
11193,Zena Roses Clinic,-1.00154,37.04431,Taken with GPS Device,SARAM 2013,2013-06-18
10920,Othaya Medical Clinic,-1.20928,36.93248,Taken with GPS Device,SARAM 2013,2013-04-22
12275,Kiamuriuki Dispensary,-0.37409,37.59391,Taken with GPS Device,SARAM 2013,2013-04-08
10308,Kahawa Wendani Hospital,-1.19498,36.92596,Taken with GPS Device,SARAM 2013,2013-04-24
11007,Shikamoo Medical Clinic,-1.14658,36.95811,Taken with GPS Device,SARAM 2013,2013-04-11
18041,The Haven Medical Centre,-1.14412,36.9569,Taken with GPS Device,SARAM 2013,2013-04-10
18555,Shalome Medical Clinic,-1.211,36.93907,Taken with GPS Device,SARAM 2013,2013-04-22
14144,Taranganya Dispensary,-1.23817,34.60087,Taken with GPS Device,SARAM 2013,2013-04-30
10814,Mweru Dispensary (Nyeri South),-0.60464,37.10145,Taken with GPS Device,SARAM 2013,2013-04-11
10695,Martmerg Medical Clinic,-1.18953,36.93209,Taken with GPS Device,SARAM 2013,2013-04-24
11010,Siloam Medical Centre,-1.21314,36.9287,Taken with GPS Device,SARAM 2013,2013-04-22
10972,Ruiru East Medical Clinic,-1.1576,36.95087,Taken with GPS Device,SARAM 2013,2013-04-25
11013,Sinai Maternity and Medical Centre,-1.20396,36.93137,Taken with GPS Device,SARAM 2013,2013-04-22
18570,Jordan Medical Clinic (Ruiru),-1.15051,36.94581,Taken with GPS Device,SARAM 2013,2013-04-26
10659,Life Care Ministry Clinic,-1.21375,36.92932,Taken with GPS Device,SARAM 2013,2013-04-22
16752,Imani Medical Clinic (Ruiru),-1.15401,36.94594,Taken with GPS Device,SARAM 2013,2013-04-26
10522,Kerugoya Medical Centre,-0.50147,37.27727,Taken with GPS Device,SARAM 2013,2013-04-19
16161,Webuye Hospital,0.61302,34.7644,Taken with GPS Device,SARAM 2013,2013-04-25
19052,Sunshin medicai Clinic,-0.22614,37.63511,Taken with GPS Device,SARAM 2013,2013-04-10
18560,Jeikei Medical Clinic,-1.16001,36.95764,Taken with GPS Device,SARAM 2013,2013-04-26
16748,Githunguri  Health Centre (Ruiru),-1.15475,36.93845,Taken with GPS Device,SARAM 2013,2013-04-24
18391,Mugutha (CDF) Dispensary,-1.11836,36.95569,Taken with GPS Device,SARAM 2013,2013-04-17
16706,Bokoli Base Clinic,0.71391,34.65859,Taken with GPS Device,SARAM 2013,2013-04-16
10061,Bethel Medical Clinic,-1.15278,36.92901,Taken with GPS Device,SARAM 2013,2013-04-25
10273,Githurai Community Clinic,-1.20788,36.91659,Taken with GPS Device,SARAM 2013,2013-04-23
10184,Focus Medical Clinic and Counselling Centre,-1.20885,36.91772,Taken with GPS Device,SARAM 2013,2013-04-23
18554,Nazarene Medical Clinic,-1.20689,36.91757,Taken with GPS Device,SARAM 2013,2013-04-23
18540,Dr Ng'ang'a Medical Clinic,-1.14678,36.95982,Taken with GPS Device,SARAM 2013,2013-04-12
10220,Gatina Dispensary,-0.54653,37.14537,Taken with GPS Device,SARAM 2013,2013-04-23
11968,Cheera Dispensary,-0.37191,37.6799,Taken with GPS Device,SARAM 2013,2013-04-18
15808,Bokoli Hospital,0.71026,34.66171,Taken with GPS Device,SARAM 2013,2013-04-28
12717,Ruiri Rural Health Demonstration Center,0.15852,37.40898,Taken with GPS Device,SARAM 2013,2013-04-15
10288,GK Prison Dispensary (Ruiru),-1.14118,36.92695,Taken with GPS Device,SARAM 2013,2013-04-25
11012,Simbi Roses Clinic,-0.99493,37.02271,Taken with GPS Device,SARAM 2013,2013-04-22
10971,Ruiru Diagnostic Centre,-1.14682,36.96056,Taken with GPS Device,SARAM 2013,2013-04-11
11033,St Frank Dispensing Centre,-1.14632,36.95391,Taken with GPS Device,SARAM 2013,2013-04-25
11043,St Josef Medical Centre,-1.14715,36.96063,Taken with GPS Device,SARAM 2013,2013-04-26
16387,Mukangu Dispensary,-0.54987,37.15393,Taken with GPS Device,SARAM 2013,2013-04-18
13724,Kuja Dispensary,-0.81305,34.56903,Taken with GPS Device,SARAM 2013,2013-05-13
18989,Mwendantu Amani clinic,-0.23063,37.62345,Taken with GPS Device,SARAM 2013,2013-04-10
17091,Kipkitur Dispensary,0.06897,36.00222,Taken with GPS Device,SARAM 2013,2013-04-11
15887,Esitsaba Dispensary,0.00975,34.61374,Taken with GPS Device,SARAM 2013,2013-04-25
14446,Emining Health Centre,0.14357,35.88708,Taken with GPS Device,SARAM 2013,2013-04-15
13898,Nyamaranya Dispensary,-1.26684,34.53846,Taken with GPS Device,SARAM 2013,2013-04-30
10868,Ngiriambu (ACK) Dispensary,-0.46692,37.39063,Taken with GPS Device,SARAM 2013,2013-04-26
16704,Pserum Dispensary,1.39087,35.2206,Taken with GPS Device,SARAM 2013,2013-04-12
10865,Ngewa Health Centre,-1.09497,36.8672,Taken with GPS Device,SARAM 2013,2013-04-22
12517,Methodist University,0.08298,37.65185,Taken with GPS Device,SARAM 2013,2013-04-10
14926,Kiptangwanyi Dispensary,-0.55678,36.11696,Taken with GPS Device,SARAM 2013,2013-04-25
10007,Afya Bora Medical Clinic (Muchagara),-0.46852,37.36062,Taken with GPS Device,SARAM 2013,2013-04-17
12031,Gatimbi Health Centre,-0.01057,37.66027,Taken with GPS Device,SARAM 2013,2013-04-12
13512,Border Clinic,-1.23508,34.48347,Taken with GPS Device,SARAM 2013,2013-05-12
16367,Alale Health Centre,2.25005,35.02779,Taken with GPS Device,SARAM 2013,2013-04-10
16852,Gaatia Dispensary,-0.0842,37.6449,Taken with GPS Device,SARAM 2013,2013-04-17
12724,Salama (Baptist) Nursing Home,-1.85311,37.25851,Taken with GPS Device,SARAM 2013,2013-04-12
12200,Karia Dispensary,-0.19953,37.6434,Taken with GPS Device,SARAM 2013,2013-04-11
13713,Kombe Dispensary,-1.10441,34.58,Taken with GPS Device,SARAM 2013,2013-04-27
15198,Mogotio Dispensary,-0.02096,35.95896,Taken with GPS Device,SARAM 2013,2013-04-16
11763,Sagaighu Dispensary,-3.43289,38.33356,Taken with GPS Device,SARAM 2013,2013-04-15
10835,Ndonyero Medical Clinic,-0.99059,36.97389,Taken with GPS Device,SARAM 2013,2013-04-22
14198,Amakuriat Dispensary,2.27808,35.00542,Taken with GPS Device,SARAM 2013,2013-04-12
18215,UUkuu MCK Dispensary,-0.04599,37.6442,Taken with GPS Device,SARAM 2013,2013-04-16
12324,Kinoro Medical Clinic,-0.17916,37.62581,Taken with GPS Device,SARAM 2013,2013-04-10
14693,Kapchemogen Dispensary,1.32273,35.30323,Taken with GPS Device,SARAM 2013,2013-04-13
18933,Wananchi Medical Clinic Maara,-0.24303,37.6205,Taken with GPS Device,SARAM 2013,2013-04-10
14196,Alale (AIC) Health Centre,2.26698,35.02813,Taken with GPS Device,SARAM 2013,2013-04-15
16262,Victoria Clinic,-1.19417,34.61912,Taken with GPS Device,SARAM 2013,2013-04-26
12325,Kinoro Sub-District Hospital,-0.17948,37.62503,Taken with GPS Device,SARAM 2013,2013-04-10
16261,Moshi Clinic,-1.20823,34.47171,Taken with GPS Device,SARAM 2013,2013-04-26
10697,Marua Medical Clinic,-0.45345,37.04541,Taken with GPS Device,SARAM 2013,2013-04-15
12510,St John Marieni Dispensary,-0.01727,37.64397,Taken with GPS Device,SARAM 2013,2013-04-11
17960,Gil Medical Clinic,-0.17857,37.62528,Taken with GPS Device,SARAM 2013,2013-04-10
10622,Kirathimo Medical Clinic,-0.98588,36.96477,Taken with GPS Device,SARAM 2013,2013-04-22
13624,Isibania Mission Health Centre,-1.22439,34.47823,Taken with GPS Device,SARAM 2013,2013-04-24
10234,Gatunyu  Dispensary,-0.96056,36.9915,Taken with GPS Device,SARAM 2013,2013-04-15
10337,Igana Dispensary,-0.58506,37.0937,Taken with GPS Device,SARAM 2013,2013-04-12
15316,Nauyapong Dispensary,2.55558,35.15433,Taken with GPS Device,SARAM 2013,2013-05-09
16506,Maisha Bora Clinic,-0.44475,37.34752,Taken with GPS Device,SARAM 2013,2013-04-25
15705,Tamough Health Centre,1.57509,35.26748,Taken with GPS Device,SARAM 2013,2013-04-12
12491,Maua Cottage,0.23675,37.93394,Taken with GPS Device,SARAM 2013,2013-04-19
10020,Gituamba (AIPCA) Dispensary,-0.94349,36.98695,Taken with GPS Device,SARAM 2013,2013-04-16
10696,Marua Dispensary,-0.45493,37.04515,Taken with GPS Device,SARAM 2013,2013-04-15
16232,Gaturi Dispensary,-0.13602,37.62605,Taken with GPS Device,SARAM 2013,2013-04-16
19261,Maua East Medical Clinic,0.23567,37.9446,Taken with GPS Device,SARAM 2013,2013-04-29
11083,Tambaya Dispensary,-0.52495,37.01488,Taken with GPS Device,SARAM 2013,2013-04-15
17574,Emmanuel Community Health Clinic,-0.56722,37.12685,Taken with GPS Device,SARAM 2013,2013-04-11
18358,Kahaaro Dispensary,-0.59231,37.06782,Taken with GPS Device,SARAM 2013,2013-04-12
13625,Isibania Sub-District Hospital,-1.23602,34.48137,Taken with GPS Device,SARAM 2013,2013-04-30
11090,Thangathi Health Centre,-0.568,37.12527,Taken with GPS Device,SARAM 2013,2013-04-13
10274,Githure (ACK) Dispensary,-0.44404,37.41089,Taken with GPS Device,SARAM 2013,2013-04-21
13663,Kegonga District Hospital,-1.25857,34.65273,Taken with GPS Device,SARAM 2013,2013-05-13
11906,Wesu District Hospital,-3.40882,38.34159,Taken with GPS Device,SARAM 2013,2013-04-11
13824,Motemorabu Dispensary,-1.18309,34.41133,Taken with GPS Device,SARAM 2013,2013-05-12
11084,Tambaya Medical Clinic,-0.52676,37.01691,Taken with GPS Device,SARAM 2013,2013-04-12
12092,Iriga Dispensary,-0.26937,37.61466,Taken with GPS Device,SARAM 2013,2013-04-10
15933,Khaoya Dispensary,0.72903,34.79794,Taken with GPS Device,SARAM 2013,2013-04-26
12605,Mutuati Sub-District Hospital,0.38287,37.98086,Taken with GPS Device,SARAM 2013,2013-04-17
16260,St Agnes Clinic,-1.24226,34.47657,Taken with GPS Device,SARAM 2013,2013-04-25
11034,St Gabriel Health Centre,-1.03347,36.91802,Taken with GPS Device,SARAM 2013,2013-04-22
11652,Mrughua Dispensary,-3.43489,38.29089,Taken with GPS Device,SARAM 2013,2013-04-13
10446,Kambui (PCEA) Dispensary,-1.101,36.86279,Taken with GPS Device,SARAM 2013,2013-04-21
11904,Werugha Health Centre,-3.38204,38.34061,Taken with GPS Device,SARAM 2013,2013-04-15
12195,Karama Dispensary,0.24174,37.82739,Taken with GPS Device,SARAM 2013,2013-04-11
10598,Kihumbu-ini Community Dispensary,-0.9292,36.98856,Taken with GPS Device,SARAM 2013,2013-04-18
13726,Kuria District Hospital,-1.18026,34.62837,Taken with GPS Device,SARAM 2013,2013-04-28
10794,Muthuthiini Dispensary,-0.59375,37.054,Taken with GPS Device,SARAM 2013,2013-04-12
17357,Ningaini Dispensary,-0.53074,37.0329,Taken with GPS Device,SARAM 2013,2013-04-15
13569,Getongoroma Dispensary,-1.18309,34.41133,Taken with GPS Device,SARAM 2013,2013-05-12
14241,Bartabwa  Dispensary,0.83614,35.81038,Taken with GPS Device,SARAM 2013,2013-04-17
13615,Ikerege Clinic,-1.19948,34.55776,Taken with GPS Device,SARAM 2013,2013-05-12
15861,Chwele Friends Dispensary,0.76134,34.54924,Taken with GPS Device,SARAM 2013,2013-04-21
10833,Ndimaini Dispensary,-0.52032,37.14537,Taken with GPS Device,SARAM 2013,2013-03-23
10333,Ichamara Dispensary,-0.54656,37.08318,Taken with GPS Device,SARAM 2013,2013-04-11
18849,Ngongo Dispensary,-0.10291,37.63078,Taken with GPS Device,SARAM 2013,2013-04-16
10416,Kahara Medical Clinic,-0.5345,37.05645,Taken with GPS Device,SARAM 2013,2013-05-17
14968,Koitebes Dispensary,0.14528,35.84098,Taken with GPS Device,SARAM 2013,2013-04-15
12670,Ntemwene Dispensary,-0.05979,37.63116,Taken with GPS Device,SARAM 2013,2013-04-16
12256,Kavata Nzou Dispensary,-1.79139,37.43367,Taken with GPS Device,SARAM 2013,2013-04-10
16594,Makutano Medical Clinic/Lab,0.05656,37.64293,Taken with GPS Device,SARAM 2013,2013-04-06
10729,Mihuti Dispensary (Nyeri South),-0.56478,37.07869,Taken with GPS Device,SARAM 2013,2013-04-12
10530,Kiamabara Dispensary,-0.51775,37.11374,Taken with GPS Device,SARAM 2013,2013-04-23
10207,Gatanga Dispensary,-0.93877,36.96232,Taken with GPS Device,SARAM 2013,2013-06-18
10059,Bethany Clinic,-0.4764,37.23567,Taken with GPS Device,SARAM 2013,2013-04-18
14652,Kajiado District Hospital,-1.85775,36.77214,Taken with GPS Device,SARAM 2013,2013-04-23
10232,Gatumbi (SDA) Dispensary,-0.41832,37.39322,Taken with GPS Device,SARAM 2013,2013-04-16
10751,Muguo Clinic,-0.47602,37.235676,Taken with GPS Device,SARAM 2013,2013-04-17
19135,Meru Hospice,0.05715,37.63776,Taken with GPS Device,SARAM 2013,2013-04-22
12070,Igandene Dispensary,-0.11775,37.62709,Taken with GPS Device,SARAM 2013,2013-04-16
15786,Ywalateke Dispensary,1.31452,35.25724,Taken with GPS Device,SARAM 2013,2013-04-12
15986,Maeni Dispensary,0.78226,34.75182,Taken with GPS Device,SARAM 2013,2013-04-22
12049,GK Prison Dispensary (Meru),0.0529,37.64474,Taken with GPS Device,SARAM 2013,2013-04-05
11602,Mgange Dawida Dispensary,-3.40138,38.31392,Taken with GPS Device,SARAM 2013,2013-04-10
15165,Mbogoini Dispensary,0.19443,36.2149,Taken with GPS Device,SARAM 2013,2013-04-17
11967,Charuru Dispensary,0.18443,37.83931,Taken with GPS Device,SARAM 2013,2013-04-12
10882,Njika Wega Medical Clinic,-0.56506,37.07582,Taken with GPS Device,SARAM 2013,2013-04-12
17062,Amwamba Dispensary,0.19384,37.93124,Taken with GPS Device,SARAM 2013,2013-04-16
15777,Weonia Dispensary,0.83884,34.83231,Taken with GPS Device,SARAM 2013,2013-04-12
12044,Gitoro Dispensary,0.06061,37.63139,Taken with GPS Device,SARAM 2013,2013-04-11
10420,Kaheti Dispensary & Maternity,-0.53228,37.05904,Taken with GPS Device,SARAM 2013,2013-04-15
10892,Nyakahuho Dispensary,-0.58511,37.0229,Taken with GPS Device,SARAM 2013,2013-04-12
16819,Ngurumo Dispensary,-0.50551,37.007366,Taken with GPS Device,SARAM 2013,2013-04-23
10640,Kirwara Health Clinic,-0.92953,36.94281,Taken with GPS Device,SARAM 2013,2013-04-19
10421,Kahiga Dispensary,-0.43732,37.04248,Taken with GPS Device,SARAM 2013,2013-04-15
10014,Afya Medical Clinic (Nyeri South),-0.63244,37.12623,Taken with GPS Device,SARAM 2013,2013-04-12
14572,Ime (AIC) Health Centre,-0.10672,36.03922,Taken with GPS Device,SARAM 2013,2013-04-16
13526,Chinato Dispensary,-1.28787,34.61433,Taken with GPS Device,SARAM 2013,2013-04-27
17458,Njemuka Medical Clinic,-1.1763,36.81993,Taken with GPS Device,SARAM 2013,2013-04-08
11155,Wairungu Clinic,-0.92986,36.94351,Taken with GPS Device,SARAM 2013,2013-04-19
10359,Ithe-Kahuno Medical Clinic,-0.50859,37.04579,Taken with GPS Device,SARAM 2013,2013-05-16
15601,Soba River Health Centre,-0.07379,35.26395,Taken with GPS Device,SARAM 2013,2013-04-10
10691,Mariine Maternity Home,-0.45814,37.03526,Taken with GPS Device,SARAM 2013,2013-04-15
10726,Miguta Dispensary,-1.07076,36.83032,Taken with GPS Device,SARAM 2013,2013-04-19
14477,Esageri Health Centre,-0.01726,35.82863,Taken with GPS Device,SARAM 2013,2013-04-10
17141,St Peters Medical Clinic,-1.2074,36.78686,Taken with GPS Device,SARAM 2013,2013-04-18
14558,Igwamiti Dispensary,0.13272,36.25113,Taken with GPS Device,SARAM 2013,2013-04-16
14651,Kajiado Christian Medical Centre,-1.81891,36.81146,Taken with GPS Device,SARAM 2013,2013-04-18
10628,Kirichu Market Medical Clinic,-0.40927,37.0125,Taken with GPS Device,SARAM 2013,2013-05-16
10632,Kirimukuyu Medical Clinic,-0.4717,37.063,Taken with GPS Device,SARAM 2013,2013-04-19
11159,Wama Medical Clinic (Kiganjo),-0.40969,37.02143,Taken with GPS Device,SARAM 2013,2013-04-24
18850,Kiroone Dispensary,-0.15374,37.63246,Taken with GPS Device,SARAM 2013,2013-04-15
10017,Aguthi Dispensary,-0.54185,37.02399,Taken with GPS Device,SARAM 2013,2013-04-22
10251,Gichira Health Centre,-0.48451,37.00865,Taken with GPS Device,SARAM 2013,2013-04-15
10762,Mukurweini Medical Clinic,-0.55675,37.05431,Taken with GPS Device,SARAM 2013,2013-04-23
16776,Sugarbaker Memorial Clinic,-0.44877,36.99196,Taken with GPS Device,SARAM 2013,2013-04-24
10488,Karatina Nursing Home,-0.45282,37.12997,Taken with GPS Device,SARAM 2013,2013-04-24
11158,Wakamata Dispensary,-0.48059,37.01622,Taken with GPS Device,SARAM 2013,2013-04-23
11688,Mwanda Health  Centre(Taita Taveta),-3.40177,38.28576,Taken with GPS Device,SARAM 2013,2013-04-12
13758,Makararangwe Dispensary,-1.33429,34.656085,Taken with GPS Device,SARAM 2013,2013-04-26
14494,Fatima Maternity Hospital,-1.39545,36.7445,Taken with GPS Device,SARAM 2013,2013-04-25
10753,Mukarara Community Dispensary,-0.90886,36.94325,Taken with GPS Device,SARAM 2013,2013-04-16
10579,Kids Alive Dispensary,-0.37097,37.03161,Taken with GPS Device,SARAM 2013,2013-04-18
12422,Laare Health Centre,0.33468,37.93759,Taken with GPS Device,SARAM 2013,2013-04-12
10484,Karatina Catholic  Dispensary,-0.48151,37.1221,Taken with GPS Device,SARAM 2013,2013-04-23
15631,St Brigids Girls High School Dispensary,0.89074,34.92186,Taken with GPS Device,SARAM 2013,2013-04-11
18750,Brown.s Memorial Medical Centre,0.99543,34.92769,Taken with GPS Device,SARAM 2013,2013-04-15
11148,Viewpoint Clinic,-0.90651,36.93959,Taken with GPS Device,SARAM 2013,2013-04-18
11015,Soldier Medical Clinic,-0.35947,37.0085,Taken with GPS Device,SARAM 2013,2013-04-22
11080,Sunny Medical Clinic (Nyeri South),-0.48124,37.12424,Taken with GPS Device,SARAM 2013,2013-04-23
11179,Wega Medical Clinic,-0.45798,36.99855,Taken with GPS Device,SARAM 2013,2013-05-16
12037,Gianchuku Dispensary,-0.21151,37.60263,Taken with GPS Device,SARAM 2013,2013-04-11
10222,Gatitu Dispensary,-0.45926,36.99678,Taken with GPS Device,SARAM 2013,2013-04-15
10582,Kiganjo Health Centre,-0.38119,37.00277,Taken with GPS Device,SARAM 2013,2013-04-23
10763,Mukurweini District Hospital,-0.56236,37.04496,Taken with GPS Device,SARAM 2013,2013-04-15
15306,Top Choice Maternity And Nursing Home,0.02172,37.068,Taken with GPS Device,SARAM 2013,2013-04-12
15698,Tachasis Mission Dispensary,0.01133,35.36315,Taken with GPS Device,SARAM 2013,2013-04-12
11177,Warui Medical Clinic,-0.43569,36.97254,Taken with GPS Device,SARAM 2013,2013-04-24
14946,Kitalale Dispensary,0.984,34.91626,Taken with GPS Device,SARAM 2013,2013-04-19
12526,Mikumbune Sub-District Hospital,-0.07809,37.61783,Taken with GPS Device,SARAM 2013,2013-04-15
10485,Karatina District Hospital,-0.47585,37.1301,Taken with GPS Device,SARAM 2013,2013-04-24
10487,Karatina Medical Services,-0.48095,37.12475,Taken with GPS Device,SARAM 2013,2013-05-17
10561,Kiangwenyi Clinic,-0.44517,37.29209,Taken with GPS Device,SARAM 2013,2013-05-13
19363,Kesogon dispensary,0.04481,34.99506,Taken with GPS Device,SARAM 2013,2013-04-30
13788,Matare Mission Dispensary,-1.31816,34.67489,Taken with GPS Device,SARAM 2013,2013-04-27
10160,Ebenezer Medical Clinic (Nyeri South),-0.42,36.96076,Taken with GPS Device,SARAM 2013,2013-04-24
12614,Muutine Med Clinic,0.29493,37.90123,Taken with GPS Device,SARAM 2013,2013-04-19
10368,Jamii Hospital,-0.47896,37.1311,Taken with GPS Device,SARAM 2013,2013-04-24
15145,Marura Dispensary,-0.00452,36.94614,Taken with GPS Device,SARAM 2013,2013-04-15
18289,Mutunguru PCEA Dispensary,-0.17467,37.6073,Taken with GPS Device,SARAM 2013,2013-04-11
10698,Mary Help of the Sick Hospital,-0.95761,36.9015,Taken with GPS Device,SARAM 2013,2013-04-22
12106,Jambu Medical Clinic,-0.07694,37.61535,Taken with GPS Device,SARAM 2013,2013-04-16
10547,Kiamwathi Medical Clinic,-0.448,36.9602,Taken with GPS Device,SARAM 2013,2013-04-30
10299,Good Shepherd Medical Clinic (Nyeri South),-0.41245,36.95918,Taken with GPS Device,SARAM 2013,2013-05-13
10286,GK Prison Dispensary (Kingongo),-0.41686,36.95922,Taken with GPS Device,SARAM 2013,2013-04-23
10981,Ruringu Medical Clinic,-0.43573,36.96315,Taken with GPS Device,SARAM 2013,2013-04-24
10961,Rosa Medical Clinic,-0.49743,36.99488,Taken with GPS Device,SARAM 2013,2013-05-17
10008,Afya Bora Medical Clinic (Nyeri South),-0.43574,36.96286,Taken with GPS Device,SARAM 2013,2013-04-24
10591,Kihara Sub-District Hospital,-1.21427,36.76768,Taken with GPS Device,SARAM 2013,2013-04-24
17571,Kiarithaini Dispensary,-0.46223,37.14135,Taken with GPS Device,SARAM 2013,2013-04-23
10872,Ngorongo Health Centre,-0.9385,36.90652,Taken with GPS Device,SARAM 2013,2013-04-23
17094,Tinganga Catholic Dispensary,-1.13311,36.81938,Taken with GPS Device,SARAM 2013,2013-04-16
10478,Karaini (ACK) Dispensary,-0.4559,37.24644,Taken with GPS Device,SARAM 2013,2013-04-24
16323,Annet Dispensary,1.32562,35.60279,Taken with GPS Device,SARAM 2013,2013-04-12
16445,Kariko Dispensary,-0.45475,37.24698,Taken with GPS Device,SARAM 2013,2013-04-24
13659,Kebaroti Dispensary,-1.31874,34.62582,Taken with GPS Device,SARAM 2013,2013-04-26
11136,Unjiru Health Centre,-0.49303,36.96518,Taken with GPS Device,SARAM 2013,2013-04-18
10870,Ngorano Health Centre,-0.41278,37.06437,Taken with GPS Device,SARAM 2013,2013-04-23
11186,Witima Health Centre,-0.5559,36.98343,Taken with GPS Device,SARAM 2013,2013-04-16
15381,Nzoia Dispensary (Trans Nzoia East),0.92467,35.13323,Taken with GPS Device,SARAM 2013,2013-04-19
10553,Kiandu Medical Clinic,-0.49026,36.96921,Taken with GPS Device,SARAM 2013,2013-04-25
13858,Ntimaru Sub-District Hospital,-1.33418,34.68676,Taken with GPS Device,SARAM 2013,2013-04-27
10546,Kiamuya Dispensary,-0.57583,36.95933,Taken with GPS Device,SARAM 2013,2013-04-16
12522,Micii Mikuru Clinic,0.18571,37.85931,Taken with GPS Device,SARAM 2013,2013-04-12
13857,Ntimaru Clinic,-1.34102,34.68957,Taken with GPS Device,SARAM 2013,2013-04-27
10022,Alpha Family Health Care,-0.49212,36.96777,Taken with GPS Device,SARAM 2013,2013-04-18
16779,Rafiki Medical Clinic,-0.56593,36.99929,Taken with GPS Device,SARAM 2013,2013-04-12
15753,Turbo Health Centre,0.63452,35.05195,Taken with GPS Device,SARAM 2013,2013-04-12
13597,Gwitembe Dispensary,-1.37063,34.71086,Taken with GPS Device,SARAM 2013,2013-05-13
15152,Matanya Dispensary,-0.05046,36.9402,Taken with GPS Device,SARAM 2013,2013-04-11
10680,Manjo Health Clinic,-0.5675,36.99656,Taken with GPS Device,SARAM 2013,2013-04-02
14287,Changoi Dispensary,-0.48641,35.2297,Taken with GPS Device,SARAM 2013,2013-04-18
16084,Nzoia (ACK) Dispensary,0.867575,35.04447,Taken with GPS Device,SARAM 2013,2013-04-20
10884,Njoki Dispensary,-0.56563,37.00016,Taken with GPS Device,SARAM 2013,2013-04-12
12831,Uruku Health Centre,-0.04503,37.60521,Taken with GPS Device,SARAM 2013,2013-04-16
10526,Kiaguthu Dispensary,-0.5915,36.95051,Taken with GPS Device,SARAM 2013,2013-04-16
17640,Kamurguiywa Dispensary,0.21174,35.06904,Taken with GPS Device,SARAM 2013,2013-04-22
17022,Toretmoi Dispensary,0.035,35.08336,Taken with GPS Device,SARAM 2013,2013-04-10
12507,Mbooni (AIC) Dispensary,-1.63075,37.46534,Taken with GPS Device,SARAM 2013,2013-04-09
15747,Tulwet Health Centre,0.91937,35.01247,Taken with GPS Device,SARAM 2013,2013-04-18
17034,Location Medical Clinic,0.26491,36.53696,Taken with GPS Device,SARAM 2013,2013-04-11
10988,Sacred Heart Dispensary,-1.18784,36.76598,Taken with GPS Device,SARAM 2013,2013-04-18
18748,Comfort The Children International(CTC),-0.97945,36.58256,Taken with GPS Device,SARAM 2013,2013-04-11
10496,Karima Dispensary (Nyeri South),-0.51938,36.97994,Taken with GPS Device,SARAM 2013,2013-04-16
14711,Kapkenyeloi Dispensary,0.54101,34.97898,Taken with GPS Device,SARAM 2013,2013-04-16
14536,Grassland Dispensary,1.00167,34.9847,Taken with GPS Device,SARAM 2013,2013-04-22
15843,Central Clinic (Lugari),0.824682,35.12118,Taken with GPS Device,SARAM 2013,2013-04-20
14905,Kipngchoch Medical Clinic,-0.15297,36.07402,Taken with GPS Device,SARAM 2013,2013-04-18
10710,Mayos Medical Clinic,-0.54992,36.94552,Taken with GPS Device,SARAM 2013,2013-04-17
10322,Holy Rosary Ikinu Dispensary,-1.09918,36.79877,Taken with GPS Device,SARAM 2013,2013-04-24
15108,Mai Mahiu Health centre,-0.97728,36.58386,Taken with GPS Device,SARAM 2013,2013-04-13
15694,Sweet Waters Dispensary,-0.02799,37.00347,Taken with GPS Device,SARAM 2013,2013-04-12
10587,Kigumo Health Centre (Kiambu East),-1.03443,36.83248,Taken with GPS Device,SARAM 2013,2013-04-05
14339,Chepkemel Health Centre (Mosop),0.52831,35.03248,Taken with GPS Device,SARAM 2013,2013-04-17
15954,Kona Clinic,0.829807,35.090837,Taken with GPS Device,SARAM 2013,2013-04-20
15534,Savani Tea Dispensary,0.07063,35.11683,Taken with GPS Device,SARAM 2013,2013-04-12
10919,Othaya Catholic Dispensary,-0.55045,36.94479,Taken with GPS Device,SARAM 2013,2013-04-17
19124,Gatune clinic,-0.98308,36.58442,Taken with GPS Device,SARAM 2013,2013-04-19
17216,Katheri Health Centre,0.01093,37.6047,Taken with GPS Device,SARAM 2013,2013-04-10
10259,Gitata Medical Clinic,-0.54559,36.94631,Taken with GPS Device,SARAM 2013,2013-04-17
15430,Olpajeta Dispensary,0.06207,36.81183,Taken with GPS Device,SARAM 2013,2013-04-16
10042,Atlas Medical Clinic,-0.54785,36.94291,Taken with GPS Device,SARAM 2013,2013-04-17
10206,Gatamu Medical Clinic,-0.55236,36.94578,Taken with GPS Device,SARAM 2013,2013-04-17
10922,Othaya Sub-District. Hospital,-0.5431,36.94199,Taken with GPS Device,SARAM 2013,2013-04-16
10173,Eunice Medical Clinic,-0.54825,36.94388,Taken with GPS Device,SARAM 2013,2013-04-17
15587,Siongiroi Health Centre,-0.89144,35.21049,Taken with GPS Device,SARAM 2013,2013-04-16
10086,Chalo Medical Clinic,-0.4288,36.93237,Taken with GPS Device,SARAM 2013,2013-04-23
15643,St John Cottage Health Centre,-0.15936,36.10559,Taken with GPS Device,SARAM 2013,2013-04-16
12368,Kitundu (SDA)  Dispensary,-1.68698,37.48007,Taken with GPS Device,SARAM 2013,2013-04-09
15639,St Francis Health Centre (Nakuru Central),0.10642,36.27621,Taken with GPS Device,SARAM 2013,2013-04-19
14762,Kapsitwet Dispensary,1.05803,34.67999,Taken with GPS Device,SARAM 2013,2013-04-15
10442,Kamakwa Medical Clinic,-0.42753,36.9319,Taken with GPS Device,SARAM 2013,2013-04-29
14958,Kobos Dispensary,1.0856,34.67853,Taken with GPS Device,SARAM 2013,2013-04-15
14514,GK Farm Prisons Dispensary (Trans Nzoia),0.98021,35.00599,Taken with GPS Device,SARAM 2013,2013-04-20
15368,Nturukuma Dispensary,0.04384,37.09034,Taken with GPS Device,SARAM 2013,2013-04-12
14528,GK Remand Prisons Dispensary (Trans Nzoia West),1.02051,34.99757,Taken with GPS Device,SARAM 2013,2013-04-21
18823,Kabarak University Medical Centre,-0.16899,35.96529,Taken with GPS Device,SARAM 2013,2013-04-22
17546,Van Den Berg Clinic,-0.83236,36.36812,Taken with GPS Device,SARAM 2013,2013-04-11
14606,Kabarak Health Centre,-0.16875,35.96547,Taken with GPS Device,SARAM 2013,2013-04-17
17544,Kentalya Farm Cilinic,-0.82049,36.33024,Taken with GPS Device,SARAM 2013,2013-04-15
15164,Mbogo Valley Dispensary,-0.06917,35.30057,Taken with GPS Device,SARAM 2013,2013-04-12
15559,Karuturi Hospital,-0.83675,36.35531,Taken with GPS Device,SARAM 2013,2013-04-15
15734,Top Station Dispensary,0.9841,35.01288,Taken with GPS Device,SARAM 2013,2013-04-19
12369,Kitundu (GOK) Dispensary,-1.6895,37.47354,Taken with GPS Device,SARAM 2013,2013-04-09
14871,Kimilili Medical Clinic,-0.83383,36.34952,Taken with GPS Device,SARAM 2013,2013-04-22
14458,Engashura Health Center,-0.25958,36.13405,Taken with GPS Device,SARAM 2013,2013-04-11
10246,Giachuki Medical Clinic,-0.85636,36.89708,Taken with GPS Device,SARAM 2013,2013-04-23
10224,Gatondo Dispensary (Nyeri North),-0.43271,37.16582,Taken with GPS Device,SARAM 2013,2013-04-23
18497,Chepsire Dispensary,0.0624,35.16897,Taken with GPS Device,SARAM 2013,2013-04-11
14947,Kitale District Hospital,1.01605,35.00888,Taken with GPS Device,SARAM 2013,2013-04-21
18790,Aphiaplus Drop-in Centre (Naivasha),-0.71238,36.42947,Taken with GPS Device,SARAM 2013,2013-04-11
19251,Kipegenda Dispensary,0.01334,35.06165,Taken with GPS Device,SARAM 2013,2013-04-16
15783,Wiyeta Dispensary,1.12463,35.12184,Taken with GPS Device,SARAM 2013,2013-04-13
15628,St Antony Health Centre,-0.24857,36.14477,Taken with GPS Device,SARAM 2013,2013-04-04
18614,Sumba Medical Clinic,-0.83073,36.33855,Taken with GPS Device,SARAM 2013,2013-04-15
15272,Nacoharg Medical Centre,-0.77839,36.42829,Taken with GPS Device,SARAM 2013,2013-04-08
18747,Vegpro Delamere Pivot(Naivasha),-0.694,36.43157,Taken with GPS Device,SARAM 2013,2013-04-26
15565,Sigor Sub-District Hospital,-0.91417,35.29807,Taken with GPS Device,SARAM 2013,2013-04-17
11066,St Peter's (ACK) Medical Clinic,-1.25831,36.71331,Taken with GPS Device,SARAM 2013,2013-04-12
15508,Saboti Sub-District Hospital,0.93754,34.8375,Taken with GPS Device,SARAM 2013,2013-04-10
19364,Kibongwa Dispensary,-0.01684,35.02512,Taken with GPS Device,SARAM 2013,2013-04-30
10247,Giakaibei Catholic Dispensary,-0.41459,37.16005,Taken with GPS Device,SARAM 2013,2013-04-23
14837,Keringet Health Centre,1.21147,35.04913,Taken with GPS Device,SARAM 2013,2013-04-12
12508,Mbooni District Hospital,-1.64501,37.47221,Taken with GPS Device,SARAM 2013,2013-04-10
14255,Bigot Medical Clinic,-0.67489,36.4328,Taken with GPS Device,SARAM 2013,2013-04-15
15114,Maji Tamu Health Centre,-0.00195,36.15748,Taken with GPS Device,SARAM 2013,2013-04-22
15134,Marie Stopes Clinic (Trans Nzoia West),1.02368,34.99891,Taken with GPS Device,SARAM 2013,2013-04-20
10573,Kibubuti Dispensary,-1.14853,36.76481,Taken with GPS Device,SARAM 2013,2013-04-24
18913,MCK Mbwinjeru Dispensary,-0.00361,37.59268,Taken with GPS Device,SARAM 2013,2013-04-11
15556,Setek Dispensary,0.00228,35.39269,Taken with GPS Device,SARAM 2013,2013-04-11
15573,Siloam Medicalclinic,1.10201,35.06732,Taken with GPS Device,SARAM 2013,2013-04-16
17027,Sitatunga Dispensary,1.10395,35.09968,Taken with GPS Device,SARAM 2013,2013-04-11
12097,Ithimbari Dispensary,-0.08638,37.59155,Taken with GPS Device,SARAM 2013,2013-04-10
