{"status": "SUCCESS", "region": {"location_type": "constituency", "locations": [{"polygon": "http://api.iebc.or.ke/geojson/constituency_144.geojson", "registered": "38560", "code": "AB4FF33D-3639-424E-8C8B-4050E3DC06C0", "name": "AINABKOI", "center": {"lat": 0.316909, "lon": 35.454233000000002}}, {"polygon": "http://api.iebc.or.ke/geojson/constituency_190.geojson", "registered": "59812", "code": "79FE4947-14B2-4C38-A937-A670E468FA3F", "name": "AINAMOI", "center": {"lat": -0.30302800000000002, "lon": 35.276668999999998}}, {"polygon": "http://api.iebc.or.ke/geojson/constituency_152.geojson", "registered": "50260", "code": "9EFD244B-2B33-4C6C-AEA5-061AD7921637", "name": "ALDAI", "center": {"lat": 0.048994000000000003, "lon": 34.959024999999997}}, {"polygon": "http://api.iebc.or.ke/geojson/constituency_234.geojson", "registered": "72746", "code": "7D2AB57B-5A17-4FEB-A19F-5A174B7BC46C", "name": "ALEGO USONGA", "center": {"lat": 0.064157000000000006, "lon": 34.232098999999998}}, {"polygon": "http://api.iebc.or.ke/geojson/constituency_254.geojson", "registered": "37808", "code": "A23DDEA0-8A5A-4494-BD0C-412DCEA48894", "name": "AWENDO", "center": {"lat": -0.86963599999999996, "lon": 34.541918000000003}}, {"polygon": "http://api.iebc.or.ke/geojson/constituency_174.geojson", "registered": "61044", "code": "08064F98-28D4-4B97-BB63-ABB803B44B00", "name": "BAHATI", "center": {"lat": -0.20980599999999999, "lon": 36.127898999999999}}, {"polygon": "http://api.iebc.or.ke/geojson/constituency_28.geojson", "registered": "18051", "code": "06959905-10B6-46CF-A6C5-C843FDF783A3", "name": "BALAMBALA", "center": {"lat": 0.066577999999999998, "lon": 39.200724000000001}}, {"polygon": "http://api.iebc.or.ke/geojson/constituency_40.geojson", "registered": "13848", "code": "B0B2FA29-FBAB-4582-8637-4D84EDF0093A", "name": "BANISSA", "center": {"lat": 3.9963669999999998, "lon": 40.507561000000003}}, {"polygon": "http://api.iebc.or.ke/geojson/constituency_158.geojson", "registered": "32833", "code": "1D82BE1C-D6DB-4829-855B-E52AD5982002", "name": "BARINGO  NORTH", "center": {"lat": 0.75331199999999998, "lon": 35.794812}}, {"polygon": "http://api.iebc.or.ke/geojson/constituency_159.geojson", "registered": "29373", "code": "2C24409B-97DA-438C-9646-CD68E7B2228A", "name": "BARINGO CENTRAL", "center": {"lat": 0.427763, "lon": 35.748744000000002}}, {"polygon": "http://api.iebc.or.ke/geojson/constituency_160.geojson", "registered": "26922", "code": "589B25AF-CAFF-44CA-9BC9-C1547B40A9AC", "name": "BARINGO SOUTH", "center": {"lat": 0.46845500000000001, "lon": 36.063226}}, {"polygon": "http://api.iebc.or.ke/geojson/constituency_192.geojson", "registered": "54195", "code": "FD81F97F-5D60-4C36-B938-99273D1DAF24", "name": "BELGUT", "center": {"lat": -0.41078599999999998, "lon": 35.269714999999998}}, {"polygon": "http://api.iebc.or.ke/geojson/constituency_264.geojson", "registered": "67036", "code": "07A31B9D-0516-4CA9-AEE7-7131C33B4E83", "name": "BOBASI", "center": {"lat": -0.83069899999999997, "lon": 34.808539000000003}}, {"polygon": "http://api.iebc.or.ke/geojson/constituency_263.geojson", "registered": "38870", "code": "68DEB955-B52E-4BC6-AEF4-44E17B9579E3", "name": "BOMACHOGE BORABU", "center": {"lat": -0.91030599999999995, "lon": 34.754750999999999}}, {"polygon": "http://api.iebc.or.ke/geojson/constituency_265.geojson", "registered": "31672", "code": "F92FB66F-56E3-4602-80E6-A88E4B64FEE7", "name": "BOMACHOGE CHACHE", "center": {"lat": -0.81017899999999998, "lon": 34.709282999999999}}, {"polygon": "http://api.iebc.or.ke/geojson/constituency_197.geojson", "registered": "46426", "code": "CBCBDEAB-24EB-495F-AC70-60764548AFBE", "name": "BOMET CENTRAL", "center": {"lat": -0.72157300000000002, "lon": 35.314473999999997}}, {"polygon": "http://api.iebc.or.ke/geojson/constituency_196.geojson", "registered": "41359", "code": "0132660F-AD79-4EBB-82E0-1F22D41E585A", "name": "BOMET EAST", "center": {"lat": -0.83232499999999998, "lon": 35.418951999999997}}, {"polygon": "http://api.iebc.or.ke/geojson/constituency_261.geojson", "registered": "39783", "code": "633DF826-3A58-4351-AF22-117C4F297036", "name": "BONCHARI", "center": {"lat": -0.66459900000000005, "lon": 34.689852000000002}}, {"polygon": "http://api.iebc.or.ke/geojson/constituency_236.geojson", "registered": "59964", "code": "B93B5DBD-F6C5-45BF-8099-7AC904E207AC", "name": "BONDO", "center": {"lat": -0.16198100000000001, "lon": 34.127597000000002}}, {"polygon": "http://api.iebc.or.ke/geojson/constituency_273.geojson", "registered": "41899", "code": "8B6ECC33-852B-4D20-A701-978DE624E552", "name": "BORABU", "center": {"lat": -0.71377100000000004, "lon": 35.021785000000001}}, {"polygon": "http://api.iebc.or.ke/geojson/constituency_231.geojson", "registered": "27492", "code": "2931C23B-0301-4C8F-9581-F33F67F1BCDA", "name": "BUDALANGI", "center": {"lat": 0.079060000000000005, "lon": 33.995693000000003}}, {"polygon": "http://api.iebc.or.ke/geojson/constituency_219.geojson", "registered": "53340", "code": "2CD6EDFB-B3D9-441F-BFFF-2D4ADAA80F65", "name": "BUMULA", "center": {"lat": 0.56606199999999995, "lon": 34.456254999999999}}, {"polygon": "http://api.iebc.or.ke/geojson/constituency_20.geojson", "registered": "26102", "code": "226D1501-CAEE-420A-A9BC-9A9ABFCF5ED0", "name": "BURA", "center": {"lat": -0.59759099999999998, "lon": 39.247661999999998}}, {"polygon": "http://api.iebc.or.ke/geojson/constituency_191.geojson", "registered": "63344", "code": "645FC0B7-6451-4334-9B4F-B7E146E5BC12", "name": "BURETI", "center": {"lat": -0.56257500000000005, "lon": 35.133333}}, {"polygon": "http://api.iebc.or.ke/geojson/constituency_207.geojson", "registered": "49907", "code": "7A817B0C-6334-47EA-902B-CA6DA24FADA7", "name": "BUTERE", "center": {"lat": 0.222388, "lon": 34.523482000000001}}, {"polygon": "http://api.iebc.or.ke/geojson/constituency_229.geojson", "registered": "41054", "code": "9CD49F26-B03B-4705-A368-B68FD0F90106", "name": "BUTULA", "center": {"lat": 0.35161900000000001, "lon": 34.294609999999999}}, {"polygon": "http://api.iebc.or.ke/geojson/constituency_57.geojson", "registered": "53839", "code": "F0A8813C-EFFE-415A-AD99-069C63F352A0", "name": "BUURI", "center": {"lat": 0.087303000000000006, "lon": 37.397815999999999}}, {"polygon": "http://api.iebc.or.ke/geojson/constituency_58.geojson", "registered": "51086", "code": "7E161A37-0F2F-46C1-8B2F-D35EDC2D4E47", "name": "CENTRAL IMENTI", "center": {"lat": -0.040134000000000003, "lon": 37.682817}}, {"polygon": "http://api.iebc.or.ke/geojson/constituency_1.geojson", "registered": "59175", "code": "7BF933C9-6FF1-4875-9762-DBF3F98C5FF6", "name": "CHANGAMWE", "center": {"lat": -4.0267970000000002, "lon": 39.614570999999998}}, {"polygon": "http://api.iebc.or.ke/geojson/constituency_195.geojson", "registered": "51730", "code": "1D10BDAE-7AEE-4B83-AB0B-3AC678166FE8", "name": "CHEPALUNGU", "center": {"lat": -0.89627800000000002, "lon": 35.252001999999997}}, {"polygon": "http://api.iebc.or.ke/geojson/constituency_140.geojson", "registered": "57858", "code": "3AA7B419-1300-4811-93D3-6FD6808D2AF2", "name": "CHERANGANY", "center": {"lat": 1.026251, "lon": 35.191681000000003}}, {"polygon": "http://api.iebc.or.ke/geojson/constituency_154.geojson", "registered": "47987", "code": "A818BE7F-30BA-42B4-ACB5-5C38486F97FE", "name": "CHESUMEI", "center": {"lat": 0.28394799999999998, "lon": 35.091244000000003}}, {"polygon": "http://api.iebc.or.ke/geojson/constituency_61.geojson", "registered": "57562", "code": "640AE503-0A24-48B1-A991-F57E43606F72", "name": "CHUKA/IGAMBANG'OMBE", "center": {"lat": -0.33746700000000002, "lon": 37.672187999999998}}, {"polygon": "http://api.iebc.or.ke/geojson/constituency_30.geojson", "registered": "19712", "code": "E5D8C8BB-2CBC-447E-95CD-718CF1E0998E", "name": "DADAAB", "center": {"lat": 0.065733, "lon": 40.372216000000002}}, {"polygon": "http://api.iebc.or.ke/geojson/constituency_275.geojson", "registered": "106120", "code": "0A342C6A-A419-4759-977F-4BCA4CE9531F", "name": "DAGORETTI NORTH", "center": {"lat": -1.2787379999999999, "lon": 36.780121000000001}}, {"polygon": "http://api.iebc.or.ke/geojson/constituency_276.geojson", "registered": "87255", "code": "AAF028D0-6D0E-4740-B418-01861BD58081", "name": "DAGORETTI SOUTH", "center": {"lat": -1.282524, "lon": 36.715569000000002}}, {"polygon": "http://api.iebc.or.ke/geojson/constituency_291.geojson", "registered": "2639", "code": "6D1B1E3B-B50D-4102-A8A7-587E9F5167D9", "name": "DIASPORA", "center": {"lat": 0.0, "lon": 0.0}}, {"polygon": "http://api.iebc.or.ke/geojson/constituency_162.geojson", "registered": "40956", "code": "B1F9CD4E-F318-412A-A244-1CC6E1C37392", "name": "ELDAMA RAVINE", "center": {"lat": 0.021767999999999999, "lon": 35.745561000000002}}, {"polygon": "http://api.iebc.or.ke/geojson/constituency_37.geojson", "registered": "13159", "code": "95693A9A-D3C5-4949-B608-D3B340D125F1", "name": "ELDAS", "center": {"lat": 2.2808380000000001, "lon": 39.456215}}, {"polygon": "http://api.iebc.or.ke/geojson/constituency_284.geojson", "registered": "103753", "code": "8CA2FF3E-8DD7-4035-9896-FC00E3980224", "name": "EMBAKASI CENTRAL", "center": {"lat": -1.2684310000000001, "lon": 36.921098999999998}}, {"polygon": "http://api.iebc.or.ke/geojson/constituency_285.geojson", "registered": "100470", "code": "CC4A848F-E49B-4166-B1AF-67DBA751BFB0", "name": "EMBAKASI EAST", "center": {"lat": -1.3061389999999999, "lon": 36.936790000000002}}, {"polygon": "http://api.iebc.or.ke/geojson/constituency_283.geojson", "registered": "80393", "code": "866A42FF-9501-481D-A650-A5670D953D22", "name": "EMBAKASI NORTH", "center": {"lat": -1.2471380000000001, "lon": 36.897499000000003}}, {"polygon": "http://api.iebc.or.ke/geojson/constituency_282.geojson", "registered": "108442", "code": "E74E0B30-4606-4C45-80E9-9B6E3DFFCEE4", "name": "EMBAKASI SOUTH", "center": {"lat": -1.3290569999999999, "lon": 36.877524000000001}}, {"polygon": "http://api.iebc.or.ke/geojson/constituency_286.geojson", "registered": "102914", "code": "65502496-7867-47F9-B63D-412A05FD3F50", "name": "EMBAKASI WEST", "center": {"lat": -1.268856, "lon": 36.897762}}, {"polygon": "http://api.iebc.or.ke/geojson/constituency_155.geojson", "registered": "44454", "code": "B7A68E9A-16BD-45A9-B271-B6880DF2B632", "name": "EMGWEN", "center": {"lat": 0.186586, "lon": 35.093338000000003}}, {"polygon": "http://api.iebc.or.ke/geojson/constituency_215.geojson", "registered": "31428", "code": "0A272716-0F9C-4BB2-902D-45168C7E788A", "name": "EMUHAYA", "center": {"lat": 0.088059999999999999, "lon": 34.614694}}, {"polygon": "http://api.iebc.or.ke/geojson/constituency_178.geojson", "registered": "28779", "code": "C893CFF0-F4CD-4D90-A75A-F5FA22CC3A47", "name": "EMURUA DIKIRR", "center": {"lat": -0.98671399999999998, "lon": 35.080385}}, {"polygon": "http://api.iebc.or.ke/geojson/constituency_137.geojson", "registered": "29096", "code": "EB6400A4-CD4B-4703-B51C-69A28FF3AF21", "name": "ENDEBESS", "center": {"lat": 1.127767, "lon": 34.772224000000001}}, {"polygon": "http://api.iebc.or.ke/geojson/constituency_31.geojson", "registered": "17832", "code": "B7ADCB4E-6FF8-4C6D-9BA7-09DB29F395B1", "name": "FAFI", "center": {"lat": -0.74595599999999995, "lon": 40.407881000000003}}, {"polygon": "http://api.iebc.or.ke/geojson/constituency_230.geojson", "registered": "32248", "code": "788176F1-1897-4DE7-A00C-32FF0F33145D", "name": "FUNYULA", "center": {"lat": 0.24753, "lon": 34.077159000000002}}, {"polygon": "http://api.iebc.or.ke/geojson/constituency_19.geojson", "registered": "21943", "code": "D013B745-4018-465F-8846-A2D9FCCF6D11", "name": "GALOLE", "center": {"lat": -1.4926379999999999, "lon": 39.502344999999998}}, {"polygon": "http://api.iebc.or.ke/geojson/constituency_15.geojson", "registered": "37190", "code": "1E58F5D4-884A-4E75-AA84-92E3BDEFAD18", "name": "GANZE", "center": {"lat": -3.452556, "lon": 39.510173000000002}}, {"polygon": "http://api.iebc.or.ke/geojson/constituency_27.geojson", "registered": "32035", "code": "36A4F89B-2FC0-490D-9F83-19B8E5E43998", "name": "GARISSA TOWNSHIP", "center": {"lat": -0.246034, "lon": 39.590128}}, {"polygon": "http://api.iebc.or.ke/geojson/constituency_18.geojson", "registered": "31849", "code": "F7C52DD3-FED4-48B6-A26A-4C31C8C04291", "name": "GARSEN", "center": {"lat": -2.3355299999999999, "lon": 39.510142999999999}}, {"polygon": "http://api.iebc.or.ke/geojson/constituency_110.geojson", "registered": "74257", "code": "548732EE-64B5-452A-B023-154AC4A7377D", "name": "GATANGA", "center": {"lat": -0.94048900000000002, "lon": 37.069443999999997}}, {"polygon": "http://api.iebc.or.ke/geojson/constituency_112.geojson", "registered": "52932", "code": "60585A86-19EF-43DF-A946-4BD44DBB7B58", "name": "GATUNDU NORTH", "center": {"lat": -0.90631700000000004, "lon": 36.828785000000003}}, {"polygon": "http://api.iebc.or.ke/geojson/constituency_111.geojson", "registered": "58774", "code": "CA245723-C83A-4C33-8556-4BFE1AB069D2", "name": "GATUNDU SOUTH", "center": {"lat": -0.96970500000000004, "lon": 36.823118999999998}}, {"polygon": "http://api.iebc.or.ke/geojson/constituency_235.geojson", "registered": "56212", "code": "399787D4-7F60-49A1-8AA5-5F68C07F6D28", "name": "GEM", "center": {"lat": 0.048855000000000003, "lon": 34.452666999999998}}, {"polygon": "http://api.iebc.or.ke/geojson/constituency_101.geojson", "registered": "67155", "code": "87968674-C301-4762-B14B-DCFCE811B4EE", "name": "GICHUGU", "center": {"lat": -0.39825100000000002, "lon": 37.347911000000003}}, {"polygon": "http://api.iebc.or.ke/geojson/constituency_169.geojson", "registered": "59596", "code": "ECCFA6FD-2DCF-4D40-9E03-AA91F6712124", "name": "GILGIL", "center": {"lat": -0.53607499999999997, "lon": 36.259638000000002}}, {"polygon": "http://api.iebc.or.ke/geojson/constituency_116.geojson", "registered": "76425", "code": "18127868-B26D-44FC-BE1A-AE814D23545B", "name": "GITHUNGURI", "center": {"lat": -1.0676300000000001, "lon": 36.794324000000003}}, {"polygon": "http://api.iebc.or.ke/geojson/constituency_213.geojson", "registered": "53953", "code": "A9C8CB56-83DA-4CCE-A799-E37B51ABD3A9", "name": "HAMISI", "center": {"lat": 0.098125000000000004, "lon": 34.821339000000002}}, {"polygon": "http://api.iebc.or.ke/geojson/constituency_249.geojson", "registered": "34669", "code": "019A8F92-53F4-40CC-BE08-A7FF5A7FA959", "name": "HOMA BAY TOWN", "center": {"lat": -0.55418500000000004, "lon": 34.475295000000003}}, {"polygon": "http://api.iebc.or.ke/geojson/constituency_52.geojson", "registered": "56481", "code": "63CF443D-E706-4145-BA52-BBE5E365CBFA", "name": "IGEMBE CENTRAL", "center": {"lat": 0.30243999999999999, "lon": 37.996523000000003}}, {"polygon": "http://api.iebc.or.ke/geojson/constituency_53.geojson", "registered": "44231", "code": "E61AFB85-993F-4509-88FE-89857DC3DE1A", "name": "IGEMBE NORTH", "center": {"lat": 0.46667900000000001, "lon": 37.987879999999997}}, {"polygon": "http://api.iebc.or.ke/geojson/constituency_51.geojson", "registered": "45929", "code": "548B2F9E-854B-44C9-8652-A90AB6BF78E1", "name": "IGEMBE SOUTH", "center": {"lat": 0.094890000000000002, "lon": 38.142364000000001}}, {"polygon": "http://api.iebc.or.ke/geojson/constituency_32.geojson", "registered": "16521", "code": "3535121F-C2B6-40F7-86DE-79ECEBADC007", "name": "IJARA", "center": {"lat": -1.5195620000000001, "lon": 40.822011000000003}}, {"polygon": "http://api.iebc.or.ke/geojson/constituency_210.geojson", "registered": "37592", "code": "C96A21BE-6BB7-460A-A000-828F3168022A", "name": "IKOLOMANI", "center": {"lat": 0.19229299999999999, "lon": 34.708860000000001}}, {"polygon": "http://api.iebc.or.ke/geojson/constituency_49.geojson", "registered": "40448", "code": "8AE0622B-A86C-4997-B4FE-506F254C9764", "name": "ISIOLO NORTH", "center": {"lat": 1.263153, "lon": 38.467185999999998}}, {"polygon": "http://api.iebc.or.ke/geojson/constituency_50.geojson", "registered": "14434", "code": "F975BFD5-4801-4823-A242-61140EBF67ED", "name": "ISIOLO SOUTH", "center": {"lat": 0.63239199999999995, "lon": 38.654595}}, {"polygon": "http://api.iebc.or.ke/geojson/constituency_2.geojson", "registered": "50765", "code": "19F2BB3D-76D1-491E-B183-2BBAA6B83C9D", "name": "JOMVU", "center": {"lat": -3.9960420000000001, "lon": 39.604101999999997}}, {"polygon": "http://api.iebc.or.ke/geojson/constituency_113.geojson", "registered": "72412", "code": "747B8DB0-1192-44AD-B540-C63D042B4C80", "name": "JUJA", "center": {"lat": -1.1099000000000001, "lon": 37.032887000000002}}, {"polygon": "http://api.iebc.or.ke/geojson/constituency_119.geojson", "registered": "62572", "code": "ECCBE6E0-2723-4AAC-99C0-7E4DF8B6C8EE", "name": "KABETE", "center": {"lat": -1.214928, "lon": 36.698670999999997}}, {"polygon": "http://api.iebc.or.ke/geojson/constituency_246.geojson", "registered": "35578", "code": "AFC471B7-519B-4343-97F8-52C03FE9022C", "name": "KABONDO KASIPUL", "center": {"lat": -0.440749, "lon": 34.861699000000002}}, {"polygon": "http://api.iebc.or.ke/geojson/constituency_218.geojson", "registered": "40986", "code": "5276BD2D-B5DC-4AF3-B929-810D57353CF8", "name": "KABUCHAI", "center": {"lat": 0.69255100000000003, "lon": 34.602713000000001}}, {"polygon": "http://api.iebc.or.ke/geojson/constituency_131.geojson", "registered": "24412", "code": "DA6E72DA-7B78-4A04-9DAB-DA0FC37530A9", "name": "KACHELIBA", "center": {"lat": 2.0565549999999999, "lon": 35.112003000000001}}, {"polygon": "http://api.iebc.or.ke/geojson/constituency_85.geojson", "registered": "42231", "code": "8AECBE34-0F2B-437D-AA6B-078ACEA726DC", "name": "KAITI", "center": {"lat": -1.772546, "lon": 37.438375000000001}}, {"polygon": "http://api.iebc.or.ke/geojson/constituency_184.geojson", "registered": "39436", "code": "F27371CC-BF47-44D2-BDC2-19CA9A2E9049", "name": "KAJIADO CENTRAL", "center": {"lat": -2.1954400000000001, "lon": 36.817489000000002}}, {"polygon": "http://api.iebc.or.ke/geojson/constituency_185.geojson", "registered": "71669", "code": "1CC5C1C4-E313-454B-9B47-B0EF86A5A9C8", "name": "KAJIADO EAST", "center": {"lat": -1.947427, "lon": 37.189394999999998}}, {"polygon": "http://api.iebc.or.ke/geojson/constituency_183.geojson", "registered": "101448", "code": "BC9BAD20-A003-45E6-A189-51404BC27456", "name": "KAJIADO NORTH", "center": {"lat": -1.379194, "lon": 36.680993000000001}}, {"polygon": "http://api.iebc.or.ke/geojson/constituency_187.geojson", "registered": "46441", "code": "4D746064-F408-4334-9D04-847D090B5310", "name": "KAJIADO SOUTH", "center": {"lat": -2.656501, "lon": 37.470132999999997}}, {"polygon": "http://api.iebc.or.ke/geojson/constituency_186.geojson", "registered": "45523", "code": "E85F327D-7318-43BC-A573-D9AD450588F9", "name": "KAJIADO WEST", "center": {"lat": -1.7277180000000001, "lon": 36.388534999999997}}, {"polygon": "http://api.iebc.or.ke/geojson/constituency_13.geojson", "registered": "43303", "code": "1186785D-9DFD-4264-BBC9-0AE1DE3885E0", "name": "KALOLENI", "center": {"lat": -3.7602890000000002, "lon": 39.525891000000001}}, {"polygon": "http://api.iebc.or.ke/geojson/constituency_288.geojson", "registered": "96190", "code": "C7E91967-BA33-4281-A10B-96655E8E95B9", "name": "KAMUKUNJI", "center": {"lat": -1.275406, "lon": 36.858818999999997}}, {"polygon": "http://api.iebc.or.ke/geojson/constituency_109.geojson", "registered": "77125", "code": "FCF13C7E-E3BA-48E0-9173-72D0417C4CF7", "name": "KANDARA", "center": {"lat": -0.88494300000000004, "lon": 37.017316000000001}}, {"polygon": "http://api.iebc.or.ke/geojson/constituency_220.geojson", "registered": "77007", "code": "18029AE0-5EA5-4A7C-83B3-6614D45A9F78", "name": "KANDUYI", "center": {"lat": 0.55672999999999995, "lon": 34.591743000000001}}, {"polygon": "http://api.iebc.or.ke/geojson/constituency_104.geojson", "registered": "39761", "code": "341DE7D4-EC6E-4C01-8E91-0F0DB3C62A26", "name": "KANGEMA", "center": {"lat": -0.67176599999999997, "lon": 36.865347999999997}}, {"polygon": "http://api.iebc.or.ke/geojson/constituency_77.geojson", "registered": "39065", "code": "E8421E46-CFF0-4618-B1CB-EBE35FC0CD3B", "name": "KANGUNDO", "center": {"lat": -1.3391329999999999, "lon": 37.358117999999997}}, {"polygon": "http://api.iebc.or.ke/geojson/constituency_129.geojson", "registered": "41492", "code": "2F10290D-C762-48FA-A27F-7C2F8F6F659E", "name": "KAPENGURIA", "center": {"lat": 1.5152749999999999, "lon": 35.145643}}, {"polygon": "http://api.iebc.or.ke/geojson/constituency_145.geojson", "registered": "47393", "code": "6D6774AC-50B3-42DD-BE05-19EA029F8BB0", "name": "KAPSERET", "center": {"lat": 0.428531, "lon": 35.243034999999999}}, {"polygon": "http://api.iebc.or.ke/geojson/constituency_247.geojson", "registered": "56554", "code": "7C2F9FE1-C45B-4F93-B39E-B16ADE90A58E", "name": "KARACHUONYO", "center": {"lat": -0.36232799999999998, "lon": 34.600892000000002}}, {"polygon": "http://api.iebc.or.ke/geojson/constituency_280.geojson", "registered": "103730", "code": "46043D7E-A008-4E40-B27E-F90D8453E636", "name": "KASARANI", "center": {"lat": -1.2493909999999999, "lon": 37.008274}}, {"polygon": "http://api.iebc.or.ke/geojson/constituency_245.geojson", "registered": "40007", "code": "14CADD21-A93D-48B5-AF65-A85054E41360", "name": "KASIPUL", "center": {"lat": -0.49923400000000001, "lon": 34.709609}}, {"polygon": "http://api.iebc.or.ke/geojson/constituency_79.geojson", "registered": "38448", "code": "8D426742-89AD-45A4-8FE9-1FE5715F8961", "name": "KATHIANI", "center": {"lat": -1.4153530000000001, "lon": 37.298090999999999}}, {"polygon": "http://api.iebc.or.ke/geojson/constituency_149.geojson", "registered": "31181", "code": "23DCD729-C05F-4063-A90B-F80A008990E1", "name": "KEIYO NORTH", "center": {"lat": 0.70815799999999995, "lon": 35.544158000000003}}, {"polygon": "http://api.iebc.or.ke/geojson/constituency_150.geojson", "registered": "40759", "code": "E7C45CE3-8036-4FCF-A59E-5598913CC65D", "name": "KEIYO SOUTH", "center": {"lat": 0.35730400000000001, "lon": 35.587459000000003}}, {"polygon": "http://api.iebc.or.ke/geojson/constituency_146.geojson", "registered": "50297", "code": "5A1253C6-CCF0-44AA-BD10-B26A5C126077", "name": "KESSES", "center": {"lat": 0.213948, "lon": 35.394458999999998}}, {"polygon": "http://api.iebc.or.ke/geojson/constituency_208.geojson", "registered": "38699", "code": "0754A339-90D7-47AD-96FE-B1B54ACDA1F9", "name": "KHWISERO", "center": {"lat": 0.147899, "lon": 34.582292000000002}}, {"polygon": "http://api.iebc.or.ke/geojson/constituency_118.geojson", "registered": "70257", "code": "9658727E-23C0-4F40-A5B1-985B947A4E0C", "name": "KIAMBAA", "center": {"lat": -1.1626970000000001, "lon": 36.760164000000003}}, {"polygon": "http://api.iebc.or.ke/geojson/constituency_117.geojson", "registered": "59351", "code": "F519BD80-13CE-431E-B952-F6FE1598ECDD", "name": "KIAMBU", "center": {"lat": -1.157335, "lon": 36.841059999999999}}, {"polygon": "http://api.iebc.or.ke/geojson/constituency_278.geojson", "registered": "98105", "code": "5AEF1B11-AB2C-4AAA-922E-7B771FB71AF3", "name": "KIBRA", "center": {"lat": -1.3040020000000001, "lon": 36.788108000000001}}, {"polygon": "http://api.iebc.or.ke/geojson/constituency_88.geojson", "registered": "41252", "code": "9FBA87A7-BD75-4A12-9DD1-AF81ED0504FB", "name": "KIBWEZI EAST", "center": {"lat": -2.6078739999999998, "lon": 38.145065000000002}}, {"polygon": "http://api.iebc.or.ke/geojson/constituency_87.geojson", "registered": "56265", "code": "0975B2B2-A923-4F9B-BAE3-D2B2B3A3A5FE", "name": "KIBWEZI WEST", "center": {"lat": -2.2534239999999999, "lon": 37.804136999999997}}, {"polygon": "http://api.iebc.or.ke/geojson/constituency_95.geojson", "registered": "82380", "code": "5D4BE79A-928D-40B6-A04D-755FE75823A5", "name": "KIENI", "center": {"lat": -0.234491, "lon": 36.942779999999999}}, {"polygon": "http://api.iebc.or.ke/geojson/constituency_107.geojson", "registered": "61098", "code": "0B0761F0-89AE-4905-A9A3-6EDA04102D31", "name": "KIGUMO", "center": {"lat": -0.78934400000000005, "lon": 36.923704999999998}}, {"polygon": "http://api.iebc.or.ke/geojson/constituency_106.geojson", "registered": "89041", "code": "B26C7754-8B6A-404F-9F0B-A5171B15286B", "name": "KIHARU", "center": {"lat": -0.71464399999999995, "lon": 37.088281000000002}}, {"polygon": "http://api.iebc.or.ke/geojson/constituency_120.geojson", "registered": "65176", "code": "C8EA5424-6896-4DA5-9407-4D8B54F0EC0F", "name": "KIKUYU", "center": {"lat": -1.2459899999999999, "lon": 36.613059}}, {"polygon": "http://api.iebc.or.ke/geojson/constituency_177.geojson", "registered": "51223", "code": "18431CDF-020E-4EC6-A4D4-EF7851D2B6F0", "name": "KILGORIS", "center": {"lat": -1.179114, "lon": 34.877529000000003}}, {"polygon": "http://api.iebc.or.ke/geojson/constituency_11.geojson", "registered": "68587", "code": "C6A4116E-AD98-4FD2-97FE-2FD5AEE16C3D", "name": "KILIFI NORTH", "center": {"lat": -3.4612780000000001, "lon": 39.888612000000002}}, {"polygon": "http://api.iebc.or.ke/geojson/constituency_12.geojson", "registered": "53360", "code": "7E24B25D-5C95-4144-B92E-C00DB85DDA90", "name": "KILIFI SOUTH", "center": {"lat": -3.802273, "lon": 39.745179}}, {"polygon": "http://api.iebc.or.ke/geojson/constituency_84.geojson", "registered": "36204", "code": "28BBC3B4-D13E-47DE-93BE-DA581882BAE5", "name": "KILOME", "center": {"lat": -1.845378, "lon": 37.284104999999997}}, {"polygon": "http://api.iebc.or.ke/geojson/constituency_223.geojson", "registered": "37716", "code": "B21AC211-880E-4175-802C-06E22A602EAF", "name": "KIMILILI", "center": {"lat": 0.78517499999999996, "lon": 34.733494999999998}}, {"polygon": "http://api.iebc.or.ke/geojson/constituency_139.geojson", "registered": "55773", "code": "C12FD0E7-1F66-44F8-BE8A-2D7E607DE616", "name": "KIMININI", "center": {"lat": 0.92209099999999999, "lon": 34.970953999999999}}, {"polygon": "http://api.iebc.or.ke/geojson/constituency_10.geojson", "registered": "52088", "code": "9968735A-8D82-45DC-BF3D-9E4D4915489A", "name": "KINANGO", "center": {"lat": -3.9795820000000002, "lon": 39.104945000000001}}, {"polygon": "http://api.iebc.or.ke/geojson/constituency_89.geojson", "registered": "85317", "code": "6AB20798-C0ED-4E88-B06E-E55DF08365E4", "name": "KINANGOP", "center": {"lat": -0.64400199999999996, "lon": 36.592269999999999}}, {"polygon": "http://api.iebc.or.ke/geojson/constituency_90.geojson", "registered": "39768", "code": "F55BDE81-B485-45B5-9EC0-DA373B4245FC", "name": "KIPIPIRI", "center": {"lat": -0.38166099999999997, "lon": 36.506798000000003}}, {"polygon": "http://api.iebc.or.ke/geojson/constituency_188.geojson", "registered": "41945", "code": "C7288681-F326-4AF6-8696-0CFF6CB75EB9", "name": "KIPKELION EAST", "center": {"lat": -0.16930200000000001, "lon": 35.513311999999999}}, {"polygon": "http://api.iebc.or.ke/geojson/constituency_189.geojson", "registered": "35075", "code": "37FED1B9-7703-4AC3-BC30-7114EB1BBA11", "name": "KIPKELION WEST", "center": {"lat": -0.14869299999999999, "lon": 35.396737000000002}}, {"polygon": "http://api.iebc.or.ke/geojson/constituency_103.geojson", "registered": "60458", "code": "F22EF6D7-4806-4627-A7A3-8C18913F1C46", "name": "KIRINYAGA CENTRAL", "center": {"lat": -0.43711499999999998, "lon": 37.267994000000002}}, {"polygon": "http://api.iebc.or.ke/geojson/constituency_3.geojson", "registered": "79839", "code": "C201CC94-2199-4921-90F4-4CE62FF33E24", "name": "KISAUNI", "center": {"lat": -3.9713229999999999, "lon": 39.68524}}, {"polygon": "http://api.iebc.or.ke/geojson/constituency_240.geojson", "registered": "96042", "code": "A8B08C73-F08E-4AE3-984D-EED3E4796D3B", "name": "KISUMU CENTRAL", "center": {"lat": -0.11568199999999999, "lon": 34.741149}}, {"polygon": "http://api.iebc.or.ke/geojson/constituency_238.geojson", "registered": "52430", "code": "BF36E5FE-0645-4D08-A67B-1FA2903DEA13", "name": "KISUMU EAST", "center": {"lat": -0.106159, "lon": 34.793785999999997}}, {"polygon": "http://api.iebc.or.ke/geojson/constituency_239.geojson", "registered": "50398", "code": "2B3AB64D-4D01-4864-BDA2-571D4E0F2035", "name": "KISUMU WEST", "center": {"lat": -0.089223999999999998, "lon": 34.654885999999998}}, {"polygon": "http://api.iebc.or.ke/geojson/constituency_72.geojson", "registered": "48548", "code": "89FBE8B4-4539-46D2-8ECD-B5C776CE131C", "name": "KITUI CENTRAL", "center": {"lat": -1.3727879999999999, "lon": 38.012551999999999}}, {"polygon": "http://api.iebc.or.ke/geojson/constituency_73.geojson", "registered": "37428", "code": "B76C429A-F77B-4B01-B5A9-953B94DDE307", "name": "KITUI EAST", "center": {"lat": -1.3703749999999999, "lon": 38.506011000000001}}, {"polygon": "http://api.iebc.or.ke/geojson/constituency_71.geojson", "registered": "35146", "code": "9CD70D4B-D645-46B2-8882-2B594EFAE9A3", "name": "KITUI RURAL", "center": {"lat": -1.512518, "lon": 37.870446999999999}}, {"polygon": "http://api.iebc.or.ke/geojson/constituency_74.geojson", "registered": "44325", "code": "F05B2130-E6DA-4528-8486-92BD51B694A5", "name": "KITUI SOUTH", "center": {"lat": -2.1652710000000002, "lon": 38.540680999999999}}, {"polygon": "http://api.iebc.or.ke/geojson/constituency_70.geojson", "registered": "37296", "code": "4CF4EC03-B5BF-4C1E-86AB-343E664E5F6B", "name": "KITUI WEST", "center": {"lat": -1.2319599999999999, "lon": 37.907896000000001}}, {"polygon": "http://api.iebc.or.ke/geojson/constituency_268.geojson", "registered": "37981", "code": "F7CA96EC-2608-46ED-A0DD-18852CAC0D0C", "name": "KITUTU CHACHE NORTH", "center": {"lat": -0.56467000000000001, "lon": 34.820016000000003}}, {"polygon": "http://api.iebc.or.ke/geojson/constituency_269.geojson", "registered": "44496", "code": "C9EA9A34-3EAE-479D-9CAF-601EDF74B045", "name": "KITUTU CHACHE SOUTH", "center": {"lat": -0.61822900000000003, "lon": 34.753903999999999}}, {"polygon": "http://api.iebc.or.ke/geojson/constituency_270.geojson", "registered": "77314", "code": "7547B055-E788-42B2-856D-A4E6E8918F72", "name": "KITUTU MASABA", "center": {"lat": -0.68853399999999998, "lon": 34.902158}}, {"polygon": "http://api.iebc.or.ke/geojson/constituency_198.geojson", "registered": "56059", "code": "BFD2992B-553A-4E7F-BDF0-664C4153FF97", "name": "KONOIN", "center": {"lat": -0.54169, "lon": 35.373480999999998}}, {"polygon": "http://api.iebc.or.ke/geojson/constituency_171.geojson", "registered": "44419", "code": "9BFD03FB-5EE9-4F58-BAA0-098476854E08", "name": "KURESOI NORTH", "center": {"lat": -0.29078399999999999, "lon": 35.600326000000003}}, {"polygon": "http://api.iebc.or.ke/geojson/constituency_170.geojson", "registered": "38309", "code": "A7437D18-D090-43C4-B4B8-491ED33BE55C", "name": "KURESOI SOUTH", "center": {"lat": -0.51627000000000001, "lon": 35.636384999999997}}, {"polygon": "http://api.iebc.or.ke/geojson/constituency_260.geojson", "registered": "25841", "code": "BDF7735E-3332-4F3F-8CE8-755AA92FA00B", "name": "KURIA EAST", "center": {"lat": -1.274629, "lon": 34.636589999999998}}, {"polygon": "http://api.iebc.or.ke/geojson/constituency_259.geojson", "registered": "36693", "code": "9FBCA601-047C-4C45-8636-017BB0E5A108", "name": "KURIA WEST", "center": {"lat": -1.1742570000000001, "lon": 34.515115000000002}}, {"polygon": "http://api.iebc.or.ke/geojson/constituency_136.geojson", "registered": "47111", "code": "F9013124-460B-41F8-A31B-AD5220BFEEC9", "name": "KWANZA", "center": {"lat": 1.147964, "lon": 34.979312999999998}}, {"polygon": "http://api.iebc.or.ke/geojson/constituency_44.geojson", "registered": "13386", "code": "50C39852-159F-4630-A12C-8A0A0AF6B0A8", "name": "LAFEY", "center": {"lat": 3.5055519999999998, "lon": 41.247340999999999}}, {"polygon": "http://api.iebc.or.ke/geojson/constituency_29.geojson", "registered": "12603", "code": "BE721EAB-4F51-4BDA-86D4-883C26FC9678", "name": "LAGDERA", "center": {"lat": 0.493203, "lon": 39.347251}}, {"polygon": "http://api.iebc.or.ke/geojson/constituency_164.geojson", "registered": "63229", "code": "A733ABBC-8C46-438E-A332-2B806BD0A490", "name": "LAIKIPIA EAST", "center": {"lat": -0.047260000000000003, "lon": 36.838800999999997}}, {"polygon": "http://api.iebc.or.ke/geojson/constituency_165.geojson", "registered": "27968", "code": "C6DACC20-FDE4-4869-A382-9976FA73C232", "name": "LAIKIPIA NORTH", "center": {"lat": 0.424539, "lon": 36.906235000000002}}, {"polygon": "http://api.iebc.or.ke/geojson/constituency_163.geojson", "registered": "83818", "code": "2D8B44A7-9B1E-4335-A8B7-37F61DE41333", "name": "LAIKIPIA WEST", "center": {"lat": 0.32580599999999998, "lon": 36.484102}}, {"polygon": "http://api.iebc.or.ke/geojson/constituency_48.geojson", "registered": "21438", "code": "185106B7-7C9C-42ED-8243-C18CF12B05BA", "name": "LAISAMIS", "center": {"lat": 2.3001830000000001, "lon": 37.360602}}, {"polygon": "http://api.iebc.or.ke/geojson/constituency_21.geojson", "registered": "13713", "code": "EA44284B-0027-40C9-8437-E39042F75469", "name": "LAMU EAST", "center": {"lat": -1.932898, "lon": 41.165317999999999}}, {"polygon": "http://api.iebc.or.ke/geojson/constituency_22.geojson", "registered": "38954", "code": "100B30FC-A2E4-4123-B2C3-C8DA624E02B1", "name": "LAMU WEST", "center": {"lat": -2.200167, "lon": 40.637439000000001}}, {"polygon": "http://api.iebc.or.ke/geojson/constituency_277.geojson", "registered": "96084", "code": "454AEEC7-C976-45AF-A8AA-4037F17D4183", "name": "LANGATA", "center": {"lat": -1.3544860000000001, "lon": 36.804653999999999}}, {"polygon": "http://api.iebc.or.ke/geojson/constituency_122.geojson", "registered": "59121", "code": "C4C19FF7-1159-49EB-8D6B-E18312FC5D45", "name": "LARI", "center": {"lat": -0.94437099999999996, "lon": 36.666888999999998}}, {"polygon": "http://api.iebc.or.ke/geojson/constituency_5.geojson", "registered": "58026", "code": "564AF869-454F-4EE8-A254-EEE018CB3B90", "name": "LIKONI", "center": {"lat": -4.0940620000000001, "lon": 39.633004999999997}}, {"polygon": "http://api.iebc.or.ke/geojson/constituency_200.geojson", "registered": "42990", "code": "994607E3-9023-4DE2-A177-12BB3932E382", "name": "LIKUYANI", "center": {"lat": 0.76380400000000004, "lon": 35.089894000000001}}, {"polygon": "http://api.iebc.or.ke/geojson/constituency_121.geojson", "registered": "68706", "code": "E6AD4620-CE53-48A3-B774-D9032B28D02E", "name": "LIMURU", "center": {"lat": -1.141737, "lon": 36.625371999999999}}, {"polygon": "http://api.iebc.or.ke/geojson/constituency_126.geojson", "registered": "18846", "code": "E1B96639-BCEB-4B4D-8558-3057F48B19F8", "name": "LOIMA", "center": {"lat": 3.028232, "lon": 35.141418999999999}}, {"polygon": "http://api.iebc.or.ke/geojson/constituency_214.geojson", "registered": "36418", "code": "55BABC23-9ABD-4602-AF42-2997250BF1B6", "name": "LUANDA", "center": {"lat": 0.024001000000000001, "lon": 34.600191000000002}}, {"polygon": "http://api.iebc.or.ke/geojson/constituency_199.geojson", "registered": "57306", "code": "CFB0877C-7833-4CA7-AEBD-5C3A2B19D994", "name": "LUGARI", "center": {"lat": 0.64599499999999999, "lon": 34.91525}}, {"polygon": "http://api.iebc.or.ke/geojson/constituency_8.geojson", "registered": "34437", "code": "CCA3424B-9657-4867-8070-4DD6BC0E1933", "name": "LUNGALUNGA", "center": {"lat": -4.4614700000000003, "lon": 39.109774000000002}}, {"polygon": "http://api.iebc.or.ke/geojson/constituency_202.geojson", "registered": "61677", "code": "C9C49D9F-0DD0-4D75-8829-D356B062EE97", "name": "LURAMBI", "center": {"lat": 0.287159, "lon": 34.702002}}, {"polygon": "http://api.iebc.or.ke/geojson/constituency_60.geojson", "registered": "51110", "code": "F82C4B01-BF36-4C60-8898-9AE50CCAF949", "name": "MAARA", "center": {"lat": -0.23358999999999999, "lon": 37.631278999999999}}, {"polygon": "http://api.iebc.or.ke/geojson/constituency_81.geojson", "registered": "79816", "code": "3169E91F-6C96-4288-A525-3ADC4D973288", "name": "MACHAKOS TOWN", "center": {"lat": -1.586935, "lon": 37.225445000000001}}, {"polygon": "http://api.iebc.or.ke/geojson/constituency_17.geojson", "registered": "44334", "code": "DC284B27-B897-481F-B92C-2019005B07BD", "name": "MAGARINI", "center": {"lat": -2.8995109999999999, "lon": 39.733068000000003}}, {"polygon": "http://api.iebc.or.ke/geojson/constituency_287.geojson", "registered": "105482", "code": "014B855A-F82A-49BA-8222-F2FCCEECC369", "name": "MAKADARA", "center": {"lat": -1.2960199999999999, "lon": 36.868650000000002}}, {"polygon": "http://api.iebc.or.ke/geojson/constituency_86.geojson", "registered": "64658", "code": "B1400899-866A-4584-AEB9-7CD688CA1934", "name": "MAKUENI", "center": {"lat": -1.9295469999999999, "lon": 37.711207999999999}}, {"polygon": "http://api.iebc.or.ke/geojson/constituency_201.geojson", "registered": "66522", "code": "20490983-7016-487C-93BE-A3D8F93D11FA", "name": "MALAVA", "center": {"lat": 0.45175900000000002, "lon": 34.834448000000002}}, {"polygon": "http://api.iebc.or.ke/geojson/constituency_16.geojson", "registered": "56066", "code": "13F0E4D3-C416-4E39-B423-514D99F99230", "name": "MALINDI", "center": {"lat": -3.211497, "lon": 39.913623000000001}}, {"polygon": "http://api.iebc.or.ke/geojson/constituency_43.geojson", "registered": "28984", "code": "98FFA22F-D37A-4228-898C-98313C9EE44E", "name": "MANDERA EAST", "center": {"lat": 3.703792, "lon": 41.609366999999999}}, {"polygon": "http://api.iebc.or.ke/geojson/constituency_41.geojson", "registered": "37546", "code": "8509E2E2-F949-444F-9B52-8EED2936B0F0", "name": "MANDERA NORTH", "center": {"lat": 3.6494110000000002, "lon": 40.741742000000002}}, {"polygon": "http://api.iebc.or.ke/geojson/constituency_42.geojson", "registered": "10574", "code": "9499BD63-713C-48B2-A0FF-21129ADE992D", "name": "MANDERA SOUTH", "center": {"lat": 2.8002199999999999, "lon": 40.775922999999999}}, {"polygon": "http://api.iebc.or.ke/geojson/constituency_39.geojson", "registered": "17112", "code": "AC9CECCB-9A36-484B-8103-4046BC77149C", "name": "MANDERA WEST", "center": {"lat": 3.4272230000000001, "lon": 40.147269000000001}}, {"polygon": "http://api.iebc.or.ke/geojson/constituency_63.geojson", "registered": "74820", "code": "65034129-042C-4FC8-99D5-E43A39A642AE", "name": "MANYATTA", "center": {"lat": -0.416462, "lon": 37.459881000000003}}, {"polygon": "http://api.iebc.or.ke/geojson/constituency_108.geojson", "registered": "69010", "code": "B3B6C47F-5081-447E-A614-7CFC0590E03C", "name": "MARAGWA", "center": {"lat": -0.87203399999999998, "lon": 37.180444000000001}}, {"polygon": "http://api.iebc.or.ke/geojson/constituency_147.geojson", "registered": "26996", "code": "C8829FF2-E468-4485-BBEB-60695653A96B", "name": "MARAKWET EAST", "center": {"lat": 1.1487810000000001, "lon": 35.576591999999998}}, {"polygon": "http://api.iebc.or.ke/geojson/constituency_148.geojson", "registered": "36205", "code": "2FA77738-EEDD-442A-BAB2-6946BFDD32AF", "name": "MARAKWET WEST", "center": {"lat": 1.019952, "lon": 35.430545000000002}}, {"polygon": "http://api.iebc.or.ke/geojson/constituency_75.geojson", "registered": "44857", "code": "3634DC14-AE41-4ACB-BF3E-C268B5DBD51E", "name": "MASINGA", "center": {"lat": -0.94494900000000004, "lon": 37.606999000000002}}, {"polygon": "http://api.iebc.or.ke/geojson/constituency_228.geojson", "registered": "41498", "code": "BA0D589A-9439-4350-9906-7E1B1C6EDFAB", "name": "MATAYOS", "center": {"lat": 0.40497699999999998, "lon": 34.167186000000001}}, {"polygon": "http://api.iebc.or.ke/geojson/constituency_290.geojson", "registered": "88213", "code": "0B21CBDE-4571-44F4-95F1-FFAF1B6B0F22", "name": "MATHARE", "center": {"lat": -1.2581119999999999, "lon": 36.860582999999998}}, {"polygon": "http://api.iebc.or.ke/geojson/constituency_105.geojson", "registered": "43708", "code": "0C1C106B-4B50-4383-A305-9FF7D3BB9EDF", "name": "MATHIOYA", "center": {"lat": -0.61743499999999996, "lon": 36.909854000000003}}, {"polygon": "http://api.iebc.or.ke/geojson/constituency_96.geojson", "registered": "80515", "code": "8B4EC37B-A80F-4D7A-A6AA-44F8AD7F5F90", "name": "MATHIRA", "center": {"lat": -0.39010299999999998, "lon": 37.147981000000001}}, {"polygon": "http://api.iebc.or.ke/geojson/constituency_9.geojson", "registered": "46265", "code": "E9F1D35C-EE03-4D88-8025-B6102E5A2A20", "name": "MATUGA", "center": {"lat": -4.2446849999999996, "lon": 39.433833999999997}}, {"polygon": "http://api.iebc.or.ke/geojson/constituency_206.geojson", "registered": "46058", "code": "84032E32-640A-48D2-A69A-2898E3C0A6C9", "name": "MATUNGU", "center": {"lat": 0.40782200000000002, "lon": 34.459772000000001}}, {"polygon": "http://api.iebc.or.ke/geojson/constituency_78.geojson", "registered": "48016", "code": "BA3B03EF-1464-4D48-8249-10FCFAD4A69B", "name": "MATUNGULU", "center": {"lat": -1.2075149999999999, "lon": 37.248432000000001}}, {"polygon": "http://api.iebc.or.ke/geojson/constituency_80.geojson", "registered": "79996", "code": "6B0706FF-4EFF-4685-AA8B-DD8C51891C8C", "name": "MAVOKO", "center": {"lat": -1.435794, "lon": 37.058743999999997}}, {"polygon": "http://api.iebc.or.ke/geojson/constituency_66.geojson", "registered": "36772", "code": "372CEFCE-70A2-4B2A-920A-052E62E5A44F", "name": "MBEERE NORTH", "center": {"lat": -0.53939800000000004, "lon": 37.767574000000003}}, {"polygon": "http://api.iebc.or.ke/geojson/constituency_65.geojson", "registered": "50384", "code": "13FD14B2-CF20-4D20-81C1-93EB8DA5C198", "name": "MBEERE SOUTH", "center": {"lat": -0.74327699999999997, "lon": 37.609371000000003}}, {"polygon": "http://api.iebc.or.ke/geojson/constituency_251.geojson", "registered": "37430", "code": "9F4286F6-B276-474A-977B-1D9A62A53096", "name": "MBITA", "center": {"lat": -0.45711800000000002, "lon": 34.175792999999999}}, {"polygon": "http://api.iebc.or.ke/geojson/constituency_83.geojson", "registered": "60220", "code": "39A3DB74-1094-4368-947A-44B00C9A74C1", "name": "MBOONI", "center": {"lat": -1.65194, "lon": 37.596311}}, {"polygon": "http://api.iebc.or.ke/geojson/constituency_161.geojson", "registered": "24182", "code": "DF089A4E-2691-435F-A60E-756839C10E56", "name": "MOGOTIO", "center": {"lat": 0.18606700000000001, "lon": 35.9955}}, {"polygon": "http://api.iebc.or.ke/geojson/constituency_143.geojson", "registered": "49850", "code": "BA48BEBB-EEE7-4E0D-8F1A-14E1374F5ED9", "name": "MOIBEN", "center": {"lat": 0.71143999999999996, "lon": 35.397226000000003}}, {"polygon": "http://api.iebc.or.ke/geojson/constituency_166.geojson", "registered": "50640", "code": "E8E8E9D2-2552-49C7-8075-1A93D1738AD5", "name": "MOLO", "center": {"lat": -0.340007, "lon": 35.781145000000002}}, {"polygon": "http://api.iebc.or.ke/geojson/constituency_156.geojson", "registered": "48148", "code": "33D8A9A0-C641-4A6F-844A-CA743089CD2A", "name": "MOSOP", "center": {"lat": 0.45441100000000001, "lon": 35.029949999999999}}, {"polygon": "http://api.iebc.or.ke/geojson/constituency_45.geojson", "registered": "38826", "code": "101DEE1C-EB6B-442D-B371-45995E986012", "name": "MOYALE", "center": {"lat": 3.141445, "lon": 38.823206999999996}}, {"polygon": "http://api.iebc.or.ke/geojson/constituency_7.geojson", "registered": "42382", "code": "5B79663B-17D2-47FC-8FFD-E0DA84F6A2D6", "name": "MSAMBWENI", "center": {"lat": -4.435073, "lon": 39.512627000000002}}, {"polygon": "http://api.iebc.or.ke/geojson/constituency_216.geojson", "registered": "49983", "code": "A2CAA68B-A05C-4626-AF13-213C226513E4", "name": "MT. ELGON", "center": {"lat": 0.92717000000000005, "lon": 34.596096000000003}}, {"polygon": "http://api.iebc.or.ke/geojson/constituency_243.geojson", "registered": "52917", "code": "6E7B2D40-2EF4-4722-8D60-75DD24040DF8", "name": "MUHORONI", "center": {"lat": -0.105183, "lon": 35.080537999999997}}, {"polygon": "http://api.iebc.or.ke/geojson/constituency_98.geojson", "registered": "42814", "code": "F63BD11B-6D37-4BEA-A6D8-8CFAE6717253", "name": "MUKURWEINI", "center": {"lat": -0.57580100000000001, "lon": 37.083069000000002}}, {"polygon": "http://api.iebc.or.ke/geojson/constituency_205.geojson", "registered": "34449", "code": "1B0ACD00-4AA4-4628-B7E9-B98C24D19730", "name": "MUMIAS EAST", "center": {"lat": 0.32969999999999999, "lon": 34.565359999999998}}, {"polygon": "http://api.iebc.or.ke/geojson/constituency_204.geojson", "registered": "37684", "code": "1DCBBC43-8B04-42EC-AD40-B5AE660154A8", "name": "MUMIAS WEST", "center": {"lat": 0.27591300000000002, "lon": 34.443505000000002}}, {"polygon": "http://api.iebc.or.ke/geojson/constituency_6.geojson", "registered": "81366", "code": "97F3A203-BD0C-4CD8-89DF-B93FC22E837E", "name": "MVITA", "center": {"lat": -4.0514619999999999, "lon": 39.661375999999997}}, {"polygon": "http://api.iebc.or.ke/geojson/constituency_82.geojson", "registered": "60801", "code": "576C5038-373D-4160-A629-053DA1184637", "name": "MWALA", "center": {"lat": -1.418234, "lon": 37.524461000000002}}, {"polygon": "http://api.iebc.or.ke/geojson/constituency_25.geojson", "registered": "29672", "code": "1FB5C956-EA20-4BCB-BECF-86BB560007DF", "name": "MWATATE", "center": {"lat": -3.719163, "lon": 38.338262}}, {"polygon": "http://api.iebc.or.ke/geojson/constituency_100.geojson", "registered": "87106", "code": "3517DDAE-90F6-4864-B8ED-D41124F49F8B", "name": "MWEA", "center": {"lat": -0.65653099999999998, "lon": 37.366301999999997}}, {"polygon": "http://api.iebc.or.ke/geojson/constituency_69.geojson", "registered": "43716", "code": "A441EAF8-DF71-4429-915A-F87CC7D87B54", "name": "MWINGI CENTRAL", "center": {"lat": -0.92254899999999995, "lon": 38.451607000000003}}, {"polygon": "http://api.iebc.or.ke/geojson/constituency_67.geojson", "registered": "44239", "code": "1DC58577-7D2A-450B-9F47-1413F928FEB8", "name": "MWINGI NORTH", "center": {"lat": -0.461391, "lon": 38.299292999999999}}, {"polygon": "http://api.iebc.or.ke/geojson/constituency_68.geojson", "registered": "35598", "code": "46914362-A7E2-4424-BD55-F04961B5D523", "name": "MWINGI WEST", "center": {"lat": -0.98045400000000005, "lon": 37.968679999999999}}, {"polygon": "http://api.iebc.or.ke/geojson/constituency_168.geojson", "registered": "110532", "code": "B4533A12-483F-4C06-8B6E-B3D6F8664DDD", "name": "NAIVASHA", "center": {"lat": -0.86800200000000005, "lon": 36.392502}}, {"polygon": "http://api.iebc.or.ke/geojson/constituency_176.geojson", "registered": "91071", "code": "993AD076-54EF-4AE0-8F99-DE17DF91F768", "name": "NAKURU TOWN EAST", "center": {"lat": -0.356848, "lon": 36.114055}}, {"polygon": "http://api.iebc.or.ke/geojson/constituency_175.geojson", "registered": "71842", "code": "76ED7758-28BA-411E-892A-CEB6C3E32CFE", "name": "NAKURU TOWN WEST", "center": {"lat": -0.35548099999999999, "lon": 36.056874000000001}}, {"polygon": "http://api.iebc.or.ke/geojson/constituency_227.geojson", "registered": "31077", "code": "89600264-B867-4817-B4A1-01587F5F85F3", "name": "NAMBALE", "center": {"lat": 0.48494199999999998, "lon": 34.313817999999998}}, {"polygon": "http://api.iebc.or.ke/geojson/constituency_153.geojson", "registered": "40931", "code": "C77C343F-AE73-466B-9609-932FEF7443E3", "name": "NANDI HILLS", "center": {"lat": 0.12770300000000001, "lon": 35.265431}}, {"polygon": "http://api.iebc.or.ke/geojson/constituency_180.geojson", "registered": "29002", "code": "2764E1C6-2C56-4FDF-AA87-1A0A4542CE40", "name": "NAROK EAST", "center": {"lat": -1.1290340000000001, "lon": 36.119146999999998}}, {"polygon": "http://api.iebc.or.ke/geojson/constituency_179.geojson", "registered": "59849", "code": "B18C683D-04DF-48C1-9572-B1909E7A8009", "name": "NAROK NORTH", "center": {"lat": -0.815994, "lon": 35.859101000000003}}, {"polygon": "http://api.iebc.or.ke/geojson/constituency_181.geojson", "registered": "50071", "code": "A8E03C1D-DF02-4780-A6D4-931DEC1D4B2D", "name": "NAROK SOUTH", "center": {"lat": -1.4499759999999999, "lon": 35.792043}}, {"polygon": "http://api.iebc.or.ke/geojson/constituency_182.geojson", "registered": "44715", "code": "F1DB45B2-A907-483C-B61C-A1C1942A3AC6", "name": "NAROK WEST", "center": {"lat": -1.3880950000000001, "lon": 35.384700000000002}}, {"polygon": "http://api.iebc.or.ke/geojson/constituency_203.geojson", "registered": "41639", "code": "C3FBA509-581E-4D3B-850C-495204129EC6", "name": "NAVAKHOLO", "center": {"lat": 0.39980300000000002, "lon": 34.673983999999997}}, {"polygon": "http://api.iebc.or.ke/geojson/constituency_93.geojson", "registered": "41725", "code": "228FA47C-10A3-4E0B-BB82-0D050BBF5A79", "name": "NDARAGWA", "center": {"lat": -0.089288000000000006, "lon": 36.529088000000002}}, {"polygon": "http://api.iebc.or.ke/geojson/constituency_250.geojson", "registered": "58200", "code": "5CEDDED4-2469-4D5F-B2BA-E3127CBAD49A", "name": "NDHIWA", "center": {"lat": -0.731236, "lon": 34.381385000000002}}, {"polygon": "http://api.iebc.or.ke/geojson/constituency_102.geojson", "registered": "51560", "code": "63B1A3B3-B27E-4153-9D9F-9205495C2A88", "name": "NDIA", "center": {"lat": -0.54436799999999996, "lon": 37.206223000000001}}, {"polygon": "http://api.iebc.or.ke/geojson/constituency_167.geojson", "registered": "76304", "code": "011BFC8B-EF9C-4E45-9845-DBF2541BD554", "name": "NJORO", "center": {"lat": -0.48723499999999997, "lon": 35.966921999999997}}, {"polygon": "http://api.iebc.or.ke/geojson/constituency_46.geojson", "registered": "24751", "code": "1BD10FDB-F1DD-49C7-8896-62F1584A8FBF", "name": "NORTH HORR", "center": {"lat": 3.3804979999999998, "lon": 37.384694000000003}}, {"polygon": "http://api.iebc.or.ke/geojson/constituency_56.geojson", "registered": "62699", "code": "2D41C8E2-DDB2-48B1-A56E-BBB7A8AA2D8F", "name": "NORTH IMENTI", "center": {"lat": 0.057105000000000003, "lon": 37.716175999999997}}, {"polygon": "http://api.iebc.or.ke/geojson/constituency_272.geojson", "registered": "42172", "code": "CBD03880-7E9A-49F9-84E6-714A4E495C06", "name": "NORTH MUGIRANGO", "center": {"lat": -0.50133499999999998, "lon": 34.992797000000003}}, {"polygon": "http://api.iebc.or.ke/geojson/constituency_244.geojson", "registered": "48112", "code": "CDB2118E-7944-4F67-B7A3-A4BEEF904773", "name": "NYAKACH", "center": {"lat": -0.32153399999999999, "lon": 34.906165000000001}}, {"polygon": "http://api.iebc.or.ke/geojson/constituency_4.geojson", "registered": "79574", "code": "628A6127-6770-4321-A65B-E07FE93AA527", "name": "NYALI", "center": {"lat": -4.0301989999999996, "lon": 39.703431999999999}}, {"polygon": "http://api.iebc.or.ke/geojson/constituency_242.geojson", "registered": "52399", "code": "185A58CA-0D65-4886-9BC1-9D3CE235429B", "name": "NYANDO", "center": {"lat": -0.21013499999999999, "lon": 34.867001000000002}}, {"polygon": "http://api.iebc.or.ke/geojson/constituency_267.geojson", "registered": "58753", "code": "611EBFFD-1D66-4AF2-9B43-4FBB223AC3AD", "name": "NYARIBARI CHACHE", "center": {"lat": -0.739093, "lon": 34.822799000000003}}, {"polygon": "http://api.iebc.or.ke/geojson/constituency_266.geojson", "registered": "44298", "code": "D2BF7643-2878-41FE-8204-8CB56783C884", "name": "NYARIBARI MASABA", "center": {"lat": -0.838924, "lon": 34.931741000000002}}, {"polygon": "http://api.iebc.or.ke/geojson/constituency_258.geojson", "registered": "46202", "code": "AE1DB9A6-1224-4146-8A64-CAAF793DBDD4", "name": "NYATIKE", "center": {"lat": -0.92050699999999996, "lon": 34.139643999999997}}, {"polygon": "http://api.iebc.or.ke/geojson/constituency_99.geojson", "registered": "64769", "code": "6FA4087B-7AA5-447B-A88F-CEA63D208DFE", "name": "NYERI TOWN", "center": {"lat": -0.418848, "lon": 36.966873999999997}}, {"polygon": "http://api.iebc.or.ke/geojson/constituency_92.geojson", "registered": "39570", "code": "D08AA109-8C04-4DCE-B765-07AD379F01DF", "name": "OL JOROK", "center": {"lat": -0.090736999999999998, "lon": 36.333187000000002}}, {"polygon": "http://api.iebc.or.ke/geojson/constituency_91.geojson", "registered": "50026", "code": "ADA0E89C-9C4D-4A22-AD72-1B02BCBCB299", "name": "OL KALOU", "center": {"lat": -0.27669500000000002, "lon": 36.334159}}, {"polygon": "http://api.iebc.or.ke/geojson/constituency_97.geojson", "registered": "47450", "code": "EB1D6AA7-3F77-4426-8BD9-0E5B74ABC7DE", "name": "OTHAYA", "center": {"lat": -0.54333699999999996, "lon": 36.832510999999997}}, {"polygon": "http://api.iebc.or.ke/geojson/constituency_132.geojson", "registered": "34217", "code": "1DD5962D-728E-41B5-98BF-B461D76EA0F5", "name": "POKOT SOUTH", "center": {"lat": 1.3419890000000001, "lon": 35.294305000000001}}, {"polygon": "http://api.iebc.or.ke/geojson/constituency_14.geojson", "registered": "34162", "code": "897DE6C4-C351-4BE6-AC72-9E1E41641071", "name": "RABAI", "center": {"lat": -3.903915, "lon": 39.606988999999999}}, {"polygon": "http://api.iebc.or.ke/geojson/constituency_248.geojson", "registered": "33650", "code": "43D08767-601D-47C3-9CB4-F28A57567185", "name": "RANGWE", "center": {"lat": -0.53637599999999996, "lon": 34.568956}}, {"polygon": "http://api.iebc.or.ke/geojson/constituency_237.geojson", "registered": "50849", "code": "0F97B6AF-54C9-4106-9744-EF9266595EDD", "name": "RARIEDA", "center": {"lat": -0.25134099999999998, "lon": 34.351801999999999}}, {"polygon": "http://api.iebc.or.ke/geojson/constituency_173.geojson", "registered": "54910", "code": "B632881B-DC7E-4314-9FCE-2E4519FFA6B7", "name": "RONGAI", "center": {"lat": -0.092305999999999999, "lon": 35.994047999999999}}, {"polygon": "http://api.iebc.or.ke/geojson/constituency_253.geojson", "registered": "36016", "code": "DFA30D50-0E21-4735-BB4B-A38FE96969BB", "name": "RONGO", "center": {"lat": -0.77327800000000002, "lon": 34.595309999999998}}, {"polygon": "http://api.iebc.or.ke/geojson/constituency_279.geojson", "registered": "112578", "code": "88230C74-A20A-4AEA-A3E1-0765AA5203DC", "name": "ROYSAMBU", "center": {"lat": -1.202966, "lon": 36.883707000000001}}, {"polygon": "http://api.iebc.or.ke/geojson/constituency_281.geojson", "registered": "89797", "code": "61CDF68D-3C57-42D9-913A-4E878B8D1676", "name": "RUARAKA", "center": {"lat": -1.2440530000000001, "lon": 36.879083000000001}}, {"polygon": "http://api.iebc.or.ke/geojson/constituency_115.geojson", "registered": "112544", "code": "5E2B8611-EE88-4407-B50A-1CE41ED5C20A", "name": "RUIRU", "center": {"lat": -1.182458, "lon": 37.002657999999997}}, {"polygon": "http://api.iebc.or.ke/geojson/constituency_64.geojson", "registered": "66368", "code": "13FEF90A-8183-4D27-8AB3-98FB33AF7DBB", "name": "RUNYENJES", "center": {"lat": -0.402893, "lon": 37.561233000000001}}, {"polygon": "http://api.iebc.or.ke/geojson/constituency_212.geojson", "registered": "48845", "code": "94D62E96-2FF4-40CA-8505-CCEA6C747525", "name": "SABATIA", "center": {"lat": 0.114872, "lon": 34.755464000000003}}, {"polygon": "http://api.iebc.or.ke/geojson/constituency_138.geojson", "registered": "56023", "code": "DFDD5B4D-26EF-4CE9-B4CE-C1E9AEE33305", "name": "SABOTI", "center": {"lat": 0.97390100000000002, "lon": 34.845263000000003}}, {"polygon": "http://api.iebc.or.ke/geojson/constituency_47.geojson", "registered": "20315", "code": "50F73960-FD2A-4EC5-9AA2-EF690B6CC0AA", "name": "SAKU", "center": {"lat": 2.336309, "lon": 37.94773}}, {"polygon": "http://api.iebc.or.ke/geojson/constituency_135.geojson", "registered": "16323", "code": "92A3018E-ACA3-4CDB-A970-223F20A0DF46", "name": "SAMBURU EAST", "center": {"lat": 1.0813539999999999, "lon": 37.476658999999998}}, {"polygon": "http://api.iebc.or.ke/geojson/constituency_134.geojson", "registered": "18186", "code": "8EB3ABBE-80EF-41C6-BB64-9F0334930A7E", "name": "SAMBURU NORTH", "center": {"lat": 1.6828149999999999, "lon": 36.832172}}, {"polygon": "http://api.iebc.or.ke/geojson/constituency_133.geojson", "registered": "27109", "code": "D76FE391-687A-4BF7-9B70-22CF59C8F595", "name": "SAMBURU WEST", "center": {"lat": 1.0407189999999999, "lon": 36.638139000000002}}, {"polygon": "http://api.iebc.or.ke/geojson/constituency_241.geojson", "registered": "35972", "code": "483E0296-EFA6-40E7-BDD6-1F2A0A96C0A7", "name": "SEME", "center": {"lat": -0.14663000000000001, "lon": 34.517169000000003}}, {"polygon": "http://api.iebc.or.ke/geojson/constituency_209.geojson", "registered": "56229", "code": "730FE66F-35C9-4A88-8CE2-99684995EEBB", "name": "SHINYALU", "center": {"lat": 0.27348, "lon": 34.857615000000003}}, {"polygon": "http://api.iebc.or.ke/geojson/constituency_130.geojson", "registered": "21430", "code": "3FEE787D-9215-4E9B-844B-76B8580AD440", "name": "SIGOR", "center": {"lat": 1.563447, "lon": 35.544955999999999}}, {"polygon": "http://api.iebc.or.ke/geojson/constituency_193.geojson", "registered": "37688", "code": "E99FBF39-0563-4AC1-B906-77948CB8FC62", "name": "SIGOWET/SOIN", "center": {"lat": -0.29879600000000001, "lon": 35.113227000000002}}, {"polygon": "http://api.iebc.or.ke/geojson/constituency_217.geojson", "registered": "30003", "code": "00A8273E-8500-4542-9447-953E170E43FE", "name": "SIRISIA", "center": {"lat": 0.74514499999999995, "lon": 34.471808000000003}}, {"polygon": "http://api.iebc.or.ke/geojson/constituency_194.geojson", "registered": "58359", "code": "216E1DA0-A582-4D56-BADD-43931862B42F", "name": "SOTIK", "center": {"lat": -0.75511700000000004, "lon": 35.136645999999999}}, {"polygon": "http://api.iebc.or.ke/geojson/constituency_59.geojson", "registered": "80780", "code": "8F857ED8-9588-4C6A-9027-9E604A0D016F", "name": "SOUTH IMENTI", "center": {"lat": -0.12359199999999999, "lon": 37.608018000000001}}, {"polygon": "http://api.iebc.or.ke/geojson/constituency_262.geojson", "registered": "51730", "code": "FB8E7B82-083C-4A2D-8D4B-1F3417E82774", "name": "SOUTH MUGIRANGO", "center": {"lat": -0.84986799999999996, "lon": 34.656078999999998}}, {"polygon": "http://api.iebc.or.ke/geojson/constituency_141.geojson", "registered": "57729", "code": "20A50413-45EE-4864-91CE-B1C36281DFE7", "name": "SOY", "center": {"lat": 0.81412899999999999, "lon": 35.233745999999996}}, {"polygon": "http://api.iebc.or.ke/geojson/constituency_289.geojson", "registered": "132703", "code": "663B9189-9E97-4A72-87B2-759EB9B704ED", "name": "STAREHE", "center": {"lat": -1.290292, "lon": 36.834684000000003}}, {"polygon": "http://api.iebc.or.ke/geojson/constituency_252.geojson", "registered": "32788", "code": "5CBFCF11-B2D7-4630-A207-7959A00DEC84", "name": "SUBA", "center": {"lat": -0.64282499999999998, "lon": 34.093212000000001}}, {"polygon": "http://api.iebc.or.ke/geojson/constituency_172.geojson", "registered": "39314", "code": "4EFCAFC0-FE89-4B23-98D6-554FA239DD75", "name": "SUBUKIA", "center": {"lat": -0.011611, "lon": 36.18573}}, {"polygon": "http://api.iebc.or.ke/geojson/constituency_255.geojson", "registered": "34433", "code": "E8DAA02C-393F-4319-BC72-D2149E70D248", "name": "SUNA EAST", "center": {"lat": -1.054182, "lon": 34.487310999999998}}, {"polygon": "http://api.iebc.or.ke/geojson/constituency_256.geojson", "registered": "30362", "code": "07D93FA8-B8CC-4009-898D-5046D1D416E5", "name": "SUNA WEST", "center": {"lat": -1.0898220000000001, "lon": 34.359202000000003}}, {"polygon": "http://api.iebc.or.ke/geojson/constituency_35.geojson", "registered": "16514", "code": "31E14620-B64E-4BF8-8A9E-398D9FB5CF9C", "name": "TARBAJ", "center": {"lat": 2.3560500000000002, "lon": 40.232509}}, {"polygon": "http://api.iebc.or.ke/geojson/constituency_23.geojson", "registered": "24309", "code": "EFCE2F06-33EE-4A44-93C5-DE0FAA25E8C6", "name": "TAVETA", "center": {"lat": -3.4249879999999999, "lon": 37.958992000000002}}, {"polygon": "http://api.iebc.or.ke/geojson/constituency_225.geojson", "registered": "37468", "code": "3619E665-22C6-4A7F-8452-96F0AEC473A7", "name": "TESO NORTH", "center": {"lat": 0.68003599999999997, "lon": 34.341320000000003}}, {"polygon": "http://api.iebc.or.ke/geojson/constituency_226.geojson", "registered": "42103", "code": "3EAF74C2-390D-41F4-8E54-60EA47EF3F78", "name": "TESO SOUTH", "center": {"lat": 0.54170600000000002, "lon": 34.218339}}, {"polygon": "http://api.iebc.or.ke/geojson/constituency_94.geojson", "registered": "39620", "code": "9C54DFA4-158A-4C51-A826-A1FFD2364BAD", "name": "TETU", "center": {"lat": -0.45756599999999997, "lon": 36.830012000000004}}, {"polygon": "http://api.iebc.or.ke/geojson/constituency_62.geojson", "registered": "47269", "code": "AA615FD2-4B45-4D5B-87E5-4E095CF1E996", "name": "THARAKA", "center": {"lat": -0.140954, "lon": 38.030977}}, {"polygon": "http://api.iebc.or.ke/geojson/constituency_114.geojson", "registered": "104002", "code": "9B706E5B-3A97-4121-9166-D5D9CF261D27", "name": "THIKA TOWN", "center": {"lat": -1.0634140000000001, "lon": 37.162061999999999}}, {"polygon": "http://api.iebc.or.ke/geojson/constituency_157.geojson", "registered": "20622", "code": "7C1A121C-3BD3-4177-B7C7-4D77E438896B", "name": "TIATY", "center": {"lat": 1.0514399999999999, "lon": 36.018897000000003}}, {"polygon": "http://api.iebc.or.ke/geojson/constituency_55.geojson", "registered": "49900", "code": "57E5A8CE-9E5C-49FD-8A48-CB4121F848D6", "name": "TIGANIA EAST", "center": {"lat": 0.27890700000000002, "lon": 37.770744999999998}}, {"polygon": "http://api.iebc.or.ke/geojson/constituency_54.geojson", "registered": "43659", "code": "009ADFE0-51C3-4E07-9A59-2B361FB6DAF4", "name": "TIGANIA WEST", "center": {"lat": 0.18947700000000001, "lon": 37.720838000000001}}, {"polygon": "http://api.iebc.or.ke/geojson/constituency_151.geojson", "registered": "32944", "code": "29AC2A0E-31F5-4C31-9072-080C446ADE10", "name": "TINDERET", "center": {"lat": -0.0067369999999999999, "lon": 35.241360999999998}}, {"polygon": "http://api.iebc.or.ke/geojson/constituency_224.geojson", "registered": "53933", "code": "74C69FAF-63DF-4403-91E6-EB77324DB0B3", "name": "TONGAREN", "center": {"lat": 0.78276500000000004, "lon": 34.927083000000003}}, {"polygon": "http://api.iebc.or.ke/geojson/constituency_142.geojson", "registered": "87720", "code": "AE06E7AC-6650-4C1F-AAB9-BAA9C14C9D7B", "name": "TURBO", "center": {"lat": 0.600939, "lon": 35.138728}}, {"polygon": "http://api.iebc.or.ke/geojson/constituency_125.geojson", "registered": "34646", "code": "002C2341-168A-471E-9BE5-CE92FB4C257D", "name": "TURKANA CENTRAL", "center": {"lat": 3.1665199999999998, "lon": 35.911839000000001}}, {"polygon": "http://api.iebc.or.ke/geojson/constituency_128.geojson", "registered": "11317", "code": "56B691DB-1682-4542-998C-5D96C3052E26", "name": "TURKANA EAST", "center": {"lat": 1.8838919999999999, "lon": 36.198203999999997}}, {"polygon": "http://api.iebc.or.ke/geojson/constituency_123.geojson", "registered": "23896", "code": "56CC9BDF-1B31-4DAF-9CD6-6ADCAE7EA568", "name": "TURKANA NORTH", "center": {"lat": 4.4562400000000002, "lon": 35.482351000000001}}, {"polygon": "http://api.iebc.or.ke/geojson/constituency_127.geojson", "registered": "24035", "code": "8080D901-EA3A-48BB-AFB6-8E6FD673687E", "name": "TURKANA SOUTH", "center": {"lat": 2.3809490000000002, "lon": 35.699930999999999}}, {"polygon": "http://api.iebc.or.ke/geojson/constituency_124.geojson", "registered": "21509", "code": "4F9CB004-44D1-4761-9EED-4209A60DB2CE", "name": "TURKANA WEST", "center": {"lat": 4.0746039999999999, "lon": 34.635677999999999}}, {"polygon": "http://api.iebc.or.ke/geojson/constituency_232.geojson", "registered": "39940", "code": "ECD2F03E-B173-4E0C-B62E-D124593A0644", "name": "UGENYA", "center": {"lat": 0.23897699999999999, "lon": 34.225532999999999}}, {"polygon": "http://api.iebc.or.ke/geojson/constituency_233.geojson", "registered": "34606", "code": "F800D571-3FD2-4B70-B6C4-8122B8D4352B", "name": "UGUNJA", "center": {"lat": 0.194415, "lon": 34.334598}}, {"polygon": "http://api.iebc.or.ke/geojson/constituency_257.geojson", "registered": "38425", "code": "2A04FC3E-2D3A-4FB3-9EFE-6F13CEF3B52B", "name": "URIRI", "center": {"lat": -0.93979599999999996, "lon": 34.448217999999997}}, {"polygon": "http://api.iebc.or.ke/geojson/constituency_211.geojson", "registered": "33896", "code": "AF718B0A-3AD4-4B84-8C3A-3D3DAAD43304", "name": "VIHIGA", "center": {"lat": 0.035199000000000001, "lon": 34.692326000000001}}, {"polygon": "http://api.iebc.or.ke/geojson/constituency_26.geojson", "registered": "37077", "code": "564ED514-6DFC-4776-BF8E-366CC6143FFF", "name": "VOI", "center": {"lat": -3.3634309999999998, "lon": 38.648220000000002}}, {"polygon": "http://api.iebc.or.ke/geojson/constituency_34.geojson", "registered": "19619", "code": "579CF97F-66B7-492D-B538-318C599F4B92", "name": "WAJIR EAST", "center": {"lat": 1.946942, "lon": 40.641246000000002}}, {"polygon": "http://api.iebc.or.ke/geojson/constituency_33.geojson", "registered": "15697", "code": "C224D8D2-6C18-4E3D-A46E-6C923841EBBF", "name": "WAJIR NORTH", "center": {"lat": 2.970742, "lon": 39.646124}}, {"polygon": "http://api.iebc.or.ke/geojson/constituency_38.geojson", "registered": "30448", "code": "147115CA-62C2-4586-AB41-EADC7710BEBA", "name": "WAJIR SOUTH", "center": {"lat": 0.98803700000000005, "lon": 40.357880000000002}}, {"polygon": "http://api.iebc.or.ke/geojson/constituency_36.geojson", "registered": "23200", "code": "225D5B79-F03E-4E59-AE4B-1B3C8E86D52E", "name": "WAJIR WEST", "center": {"lat": 1.6598710000000001, "lon": 39.530074999999997}}, {"polygon": "http://api.iebc.or.ke/geojson/constituency_221.geojson", "registered": "32566", "code": "6E3B2513-4794-4159-818A-7F67D5896E4F", "name": "WEBUYE EAST", "center": {"lat": 0.66083499999999995, "lon": 34.786017000000001}}, {"polygon": "http://api.iebc.or.ke/geojson/constituency_222.geojson", "registered": "38048", "code": "B1E5F74E-A70A-472D-A292-A2B9B293364D", "name": "WEBUYE WEST", "center": {"lat": 0.62486399999999998, "lon": 34.702303000000001}}, {"polygon": "http://api.iebc.or.ke/geojson/constituency_271.geojson", "registered": "59956", "code": "D7E93F71-1DD0-451C-92C8-AADD9EF567CD", "name": "WEST MUGIRANGO", "center": {"lat": -0.583596, "lon": 34.929636000000002}}, {"polygon": "http://api.iebc.or.ke/geojson/constituency_274.geojson", "registered": "118594", "code": "6560DFD0-06DC-4ED7-940B-E84FA8EA8ED9", "name": "WESTLANDS", "center": {"lat": -1.238456, "lon": 36.788294}}, {"polygon": "http://api.iebc.or.ke/geojson/constituency_24.geojson", "registered": "23358", "code": "FE63140D-94B0-469B-81DF-0CAA8055FD4C", "name": "WUNDANYI", "center": {"lat": -3.2847270000000002, "lon": 38.282546000000004}}, {"polygon": "http://api.iebc.or.ke/geojson/constituency_76.geojson", "registered": "55963", "code": "A079983D-EC07-45A6-8A11-7DF7042B24AD", "name": "YATTA", "center": {"lat": -1.2350300000000001, "lon": 37.580471000000003}}]}}